"","District","Street","Area","Num_whole_rooms","Num_half_rooms","Price","Condition","Comfort_lev","Energy_eff","Floor","Floors_in_bdg","Lift","Ceiling_height","Air_conditioning","Furnished","Overhead","Vacant_possession","Min_rental(month)","View_to","Garden","Mechanized","Pets","Smoking","Parking","Year","Balcony","Parking_fee(monthly)","Address","ddress","lat","long"
"1",8," Orczy út 46-48",42,1,NA,99000,"renovated","high",NA,1,2,"No",NA,"Yes","Yes",NA,"immediately","nincs",NA,NA,"Yes","No",NA,"street",NA,NA,NA," Orczy út 46-48,8"," Orczy út 46-48, 8",47.487824,19.0927789
"2",13," Frangepán utca",44,1,1,175000,"new","high",NA,5,8,"Yes","less than 3","No","Yes",NA,"immediately","1 év","street","No","Yes","No","No","can rent","2020","2",NA," Frangepán utca,13"," Frangepán utca, 13",47.5355686,19.0728925
"3",9," Kinizsi utca",70,3,NA,160000,"like new","very high",NA,3,5,"Yes",NA,NA,"Yes",NA,"immediately","1 év","street","No","Yes",NA,"No","can rent","2001-2010 ",NA,30000," Kinizsi utca,9"," Kinizsi utca, 9",47.5837366,19.0614178591709
"4",14," Öv utca 133.",43,2,NA,144000,"like new","high","AA+",3,8,"Yes","less than 3",NA,"By arrangement",25000,"not immediately","1 év","panorama",NA,NA,"Yes",NA,"can rent","2012","5",8000," Öv utca 133.,14"," Öv utca 133., 14",47.5299747,19.1273632600085
"5",13," Ipoly utca 3.",55,2,NA,185000,"new","high","AA+",5,9,"Yes","less than 3","Yes","By arrangement",25000,"not immediately","1 év","garden",NA,"Yes","Yes","Yes","can rent","2013","11",45000," Ipoly utca 3.,13"," Ipoly utca 3., 13",47.520241,19.0537582
"6",11," Szentimreváros",110,3,NA,420000,"renovated","very high",NA,3,3,"No","less than 3","Yes","Yes",NA,"immediately","1 év","garden","No","Yes",NA,"No","included",NA,"6",NA," Szentimreváros,11"," Szentimreváros, 11",47.479064,19.0387155
"7",16," Koronafürt utca 44",20,1,NA,80000,"new","high","AA",NA,5,"Yes",NA,"No","Yes",20000,"immediately","5 hónap","yard","Yes","Yes","No","No","included","2019",NA,NA," Koronafürt utca 44,16"," Koronafürt utca 44, 16",47.5072511,19.2021583
"8",5," Semmelweis utca 11.",20,1,NA,90000,"new","high","AA",NA,7,"Yes",NA,"No","Yes",20000,"immediately","5 hónap",NA,"No","Yes","No","No",NA,"2017",NA,NA," Semmelweis utca 11.,5"," Semmelweis utca 11., 5",47.4948963,19.0583159304469
"9",5," Petofi Sándor utca 17.",42,1,1,349000,"new","high",NA,2,8,"Yes","less than 3",NA,"Yes",70000,"immediately","1 év","yard","No","Yes","No","No","street","2021","10",NA," Petofi Sándor utca 17.,5"," Petofi Sándor utca 17., 5",47.4949365,19.0534821
"10",2," Újlak",73,2,1,240000,"like new","very high",NA,3,5,"Yes","less than 3",NA,"No",NA,"immediately","1 év","street","No","No",NA,"No","street","1981-2000 ",NA,NA," Újlak,2"," Újlak, 2",47.4786565,19.2351127
"11",13," Madarász Viktor utca 38.",42,1,1,168750,"new","high",NA,4,8,"Yes",NA,"Yes","Yes",15000,"immediately","1 év",NA,NA,"Yes",NA,NA,NA,"2020","11",NA," Madarász Viktor utca 38.,13"," Madarász Viktor utca 38., 13",47.5513389,19.0769152
"12",13," Röppentyu utca",45,2,NA,140000,"like new","high",NA,2,6,"Yes","less than 3",NA,"Partially",NA,"not immediately","1 év","garden","No","Yes","No","No","street","2001-2010 ","6",NA," Röppentyu utca,13"," Röppentyu utca, 13",47.66498235,17.6606604142781
"13",11," Szentimreváros",70,3,NA,2e+05,"renovated","high",NA,0.5,2,"No","3 or more","No","No",40000,"immediately","1 év","garden","No","No","No","No","can rent",NA,NA,25000," Szentimreváros,11"," Szentimreváros, 11",47.479064,19.0387155
"14",2," Bécsi út",97,4,NA,425000,"like new","very high",NA,2,6,"Yes","less than 3","Yes","No",NA,"immediately","1 év","street","No","Yes","No","No","must rent","2001-2010 ","15",25000," Bécsi út,2"," Bécsi út, 2",47.524786,19.0367661
"15",7," Dohány utca",50,2,NA,120000,"renovated","average",NA,2,4,"No","3 or more","No","Yes",NA,"immediately","1 év","yard","No","Yes","No","No","street","1950 elott",NA,NA," Dohány utca,7"," Dohány utca, 7",47.4953393,19.062168
"16",21," Kossuth Lajos utca",55,2,NA,120000,"good","high",NA,NA,10,NA,"less than 3",NA,"Yes",15000,NA,"1 év","street",NA,"Yes","No","No","street",NA,"3",NA," Kossuth Lajos utca,21"," Kossuth Lajos utca, 21",47.4230894,19.0693245
"17",9," Ferenc körút",37,1,1,120000,"renovated","high",NA,1,5,"Yes","3 or more","Yes","No",NA,"immediately","1 év","street","No","Yes",NA,"No","street",NA,NA,NA," Ferenc körút,9"," Ferenc körút, 9",47.9655378,21.7166364
"18",11," Alíz utca 6",65,3,NA,240000,"like new",NA,NA,1,6,"Yes",NA,"Yes","Partially",NA,"immediately","1 év","panorama","No","Yes",NA,NA,"included","2019","125",NA," Alíz utca 6,11"," Alíz utca 6, 11",47.4589903,19.0487356
"19",14," Kerepesi út 30.",40,1,NA,120000,"renovated","high",NA,3,3,"No","less than 3","Yes","Yes",15000,"not immediately","1 év","street",NA,"Yes","No",NA,"can rent",NA,NA,20000," Kerepesi út 30.,14"," Kerepesi út 30., 14",47.5006056,19.1097823
"20",13," Futár utca",52,2,NA,160000,"like new",NA,NA,3,4,"Yes",NA,"Yes","Partially",9000,"immediately","1 év","garden",NA,NA,NA,NA,"street","2001-2010 ","13",NA," Futár utca,13"," Futár utca, 13",47.5391675,19.0865964
"21",2," Törökvész út",140,5,NA,520000,"renovated","very high",NA,2,3,"No","less than 3","Yes","No",NA,"not immediately","1 év","panorama","No","Yes",NA,NA,"included",NA,"40",NA," Törökvész út,2"," Törökvész út, 2",47.51992815,19.021592021551
"22",7," Wesselényi utca 9.",75,3,NA,170000,"like new","high",NA,3,NA,"Yes","3 or more","Yes","Yes",70000,"immediately","nincs",NA,"No","Yes","No","No",NA,NA,NA,NA," Wesselényi utca 9.,7"," Wesselényi utca 9., 7",47.4969071,19.0618052
"23",13," Babér utca 13.",37,2,NA,158000,"new","high",NA,1,8,"Yes","less than 3","Yes","Yes",28000,"immediately","1 év","street","No","Yes",NA,NA,"street","2018","5",NA," Babér utca 13.,13"," Babér utca 13., 13",47.5478217,19.0757291
"24",13," Madarász Viktor utca",46,2,NA,168000,"new",NA,NA,5,NA,"Yes",NA,"Yes","Yes",20000,NA,"1 év","yard",NA,"Yes",NA,NA,"can rent",NA,"11",20000," Madarász Viktor utca,13"," Madarász Viktor utca, 13",47.5461951,19.0750440041604
"25",7," Belso-Erzsébetváros",75,3,1,155000,"renovated","high",NA,0.5,5,"Yes","3 or more","Yes","No",33000,"immediately","1 év","street","No","Yes","No","No","street","1950-1980 ",NA,NA," Belso-Erzsébetváros,7"," Belso-Erzsébetváros, 7",47.55763565,19.03214965
"26",7," Dohány utca 57.",68,2,NA,159000,"like new","high",NA,NA,NA,NA,"less than 3","No","Yes",60000,"immediately","nincs","yard","No","Yes","No","No",NA,NA,NA,NA," Dohány utca 57.,7"," Dohány utca 57., 7",47.4989716,19.0714565214886
"27",11," Baranyai tér",30,1,NA,120000,"renovated","high",NA,4,7,"Yes","less than 3","No","No",NA,"not immediately","1 év","street","No","Yes","No","No","street","1950-1980 ",NA,NA," Baranyai tér,11"," Baranyai tér, 11",47.4733432,19.0504408
"28",6," Andrássy út",110,3,NA,350000,"renovated","very high",NA,0.5,3,"No",NA,NA,"Yes",NA,"immediately","1 év","garden","No","Yes","Yes","No","street","1950 elott","1",NA," Andrássy út,6"," Andrássy út, 6",47.5008285,19.056241
"29",13," Danubius utca",61,2,NA,220000,"like new","luxury",NA,5,9,"Yes","less than 3","Yes","Yes",50000,"immediately","1 év","panorama","No","Yes",NA,NA,"included","2001-2010 ","16",NA," Danubius utca,13"," Danubius utca, 13",47.5479832,19.0660088
"30",12," Németvölgyi út 41.",53,2,NA,396000,"new","luxury","AA++",1,3,"Yes","less than 3","Yes","By arrangement",40000,"immediately","1 év","garden",NA,"Yes",NA,NA,"can rent",NA,"11",NA," Németvölgyi út 41.,12"," Németvölgyi út 41., 12",47.494333,19.0137302
"31",5," Múzeum körút 9.",65,2,1,190000,"renovated","high",NA,2,NA,"Yes",NA,NA,"Yes",30000,"immediately","1 év","street",NA,"Yes","No","No","street","1950-1980 ",NA,NA," Múzeum körút 9.,5"," Múzeum körút 9., 5",47.4932366,19.0603107
"32",2," Lajos utca",60,2,NA,159000,"renovated","high","AA++",1,4,"Yes","3 or more","No","Yes",NA,"immediately","1 év","yard","No","Yes","No","No","street","1950 elott",NA,NA," Lajos utca,2"," Lajos utca, 2",47.52454,19.0374382
"33",6," Teréz körút 8.",90,3,1,320000,NA,NA,NA,NA,NA,NA,NA,NA,NA,NA,NA,"nincs",NA,NA,NA,NA,NA,NA,NA,"6",NA," Teréz körút 8.,6"," Teréz körút 8., 6",47.50428605,19.0641999053643
"34",6," Izabella utca 70.",45,1,1,125000,"renovated",NA,NA,3,3,"No","3 or more",NA,"Yes",20000,"immediately","6 hónap","yard",NA,"Yes","No","No",NA,NA,NA,NA," Izabella utca 70.,6"," Izabella utca 70., 6",47.5090662,19.0654124
"35",11," Lágymányosi utca",42,1,NA,130000,"renovated","high",NA,3,3,NA,"3 or more",NA,"Yes",20000,"immediately","1 év","street",NA,"Yes","Yes",NA,NA,"1981-2000 ",NA,NA," Lágymányosi utca,11"," Lágymányosi utca, 11",47.4775999,19.0516483944049
"36",9," Vágóhíd utca 3.",61,2,NA,180000,"new","high",NA,4,10,"Yes","less than 3","Yes","By arrangement",40000,"immediately","1 év","street","No","No","No","No","can rent","2020","28",20500," Vágóhíd utca 3.,9"," Vágóhíd utca 3., 9",47.47189835,19.0782007579403
"37",8," Kofaragó utca",115,4,NA,620000,"renovated","luxury",NA,2,2,"No","3 or more",NA,"Yes",60000,"immediately","6 hónap","street","No","Yes",NA,"No","can rent","1950 elott",NA,25000," Kofaragó utca,8"," Kofaragó utca, 8",47.4936358,19.0682036
"38",12," Németvölgyi út 23.",82,2,1,290000,"new","luxury",NA,3,3,"Yes",NA,"Yes","Yes",20000,"immediately","1 év","street",NA,"Yes","No","No","must rent","2011","25",40000," Németvölgyi út 23.,12"," Németvölgyi út 23., 12",47.4959607,19.0167382456889
"39",11," Szent Gellért tér",50,2,NA,160000,"renovated","high",NA,2,4,"No","3 or more","No","No",30000,"immediately","1 év","street","No","No","No","No","street","1950 elott",NA,NA," Szent Gellért tér,11"," Szent Gellért tér, 11",47.2521912,17.7284917
"40",13," Volegény utca 2.",50,2,NA,149000,"renovated","high",NA,2,2,"No","less than 3","Yes","Yes",29000,"immediately","1 év","garden","No","Yes","No","No","can rent",NA,"4",NA," Volegény utca 2.,13"," Volegény utca 2., 13",47.54621515,19.0814460607673
"41",14," Szabács utca",43,1,1,120000,"good","high",NA,1,4,"No","less than 3","No","No",NA,"immediately","nincs","panorama",NA,"No","No","No","street",NA,"2",NA," Szabács utca,14"," Szabács utca, 14",47.5185495,19.1157513
"42",7," Klauzál utca 34.",95,5,NA,180000,"like new","high",NA,2,NA,"No","3 or more","Yes","Yes",1e+05,"immediately","nincs","yard","No","Yes","No","No",NA,NA,NA,NA," Klauzál utca 34.,7"," Klauzál utca 34., 7",47.4992314,19.0649472
"43",7," Dohány utca 5.",90,3,NA,180000,"like new","high",NA,2,NA,"Yes","less than 3","Yes","Yes",80000,"immediately","nincs","street","No","Yes","No","No",NA,NA,NA,NA," Dohány utca 5.,7"," Dohány utca 5., 7",47.4954114,19.0614601
"44",7," Rákóczi út 36.",100,5,NA,180000,"like new","average",NA,3,NA,"Yes","3 or more","Yes","Yes",80000,"immediately","nincs",NA,"No","Yes","No","No",NA,NA,NA,NA," Rákóczi út 36.,7"," Rákóczi út 36., 7",47.49665,19.0680572
"45",7," Dohány utca 5.",50,2,NA,160000,"like new","average",NA,1,NA,"Yes","3 or more","No","Yes",40000,"immediately","nincs","yard","No","Yes","No","No",NA,NA,NA,NA," Dohány utca 5.,7"," Dohány utca 5., 7",47.4954114,19.0614601
"46",7," Rumbach Sebestyén utca",37,1,NA,140000,"renovated","average",NA,0.5,6,"Yes",NA,NA,"Yes",20000,"immediately","1 év","yard",NA,"Yes","No",NA,NA,NA,NA,NA," Rumbach Sebestyén utca,7"," Rumbach Sebestyén utca, 7",47.4973365,19.0593806
"47",7," Rózsa utca",68,4,NA,180000,"new","high",NA,3,7,"Yes","less than 3","Yes","Partially",NA,"immediately","1 év","street","No","Yes","Yes","No","can rent","2001-2010 ",NA,35000," Rózsa utca,7"," Rózsa utca, 7",47.6437293,19.0263359
"48",7," Dohány utca",99,3,NA,185000,"renovated",NA,NA,1,NA,"Yes",NA,"Yes","No",28000,"immediately","1 év",NA,NA,NA,NA,"No","street",NA,NA,NA," Dohány utca,7"," Dohány utca, 7",47.4953393,19.062168
"49",9," Tuzoltó utca 71.",44,2,NA,130000,"new","high",NA,1,5,"Yes",NA,"Yes","No",NA,"immediately","1 év","street",NA,"Yes","No",NA,"street",NA,"2",NA," Tuzoltó utca 71.,9"," Tuzoltó utca 71., 9",47.4793698,19.0815976
"50",7," Wesselényi utca 4.",50,2,NA,130000,"renovated","high",NA,2,NA,"Yes","3 or more","Yes","Yes",50000,"immediately","nincs","yard","No","Yes","No","No",NA,NA,NA,NA," Wesselényi utca 4.,7"," Wesselényi utca 4., 7",47.4964796,19.060201
"51",11," Etele út",49,2,NA,140000,"renovated","high",NA,6,10,"Yes",NA,"Yes","Yes",NA,"immediately","1 év","street","No","Yes","No",NA,"street",NA,"5",NA," Etele út,11"," Etele út, 11",47.4625021,19.0413102
"52",7," Dohány utca 28.",85,2,NA,140000,"like new","high",NA,2,3,"No","3 or more","No","Yes",60000,"immediately","nincs","street","No","Yes","No","No",NA,NA,"2",NA," Dohány utca 28.,7"," Dohány utca 28., 7",47.4960005,19.063779277574
"53",13," Szobor utca 4.",47,1,1,168750,"new","high",NA,6,8,"Yes",NA,"Yes","Yes",NA,"immediately",NA,NA,NA,"Yes","Yes","No","can rent","2020","5",20000," Szobor utca 4.,13"," Szobor utca 4., 13",47.551677025,19.075208525
"54",11," Olajbogyó utca 6.",27,1,NA,95000,"like new",NA,NA,6,6,"Yes",NA,"No","No",NA,"immediately","1 év","street",NA,"Yes","No",NA,"can rent","2001-2010 ","6",20000," Olajbogyó utca 6.,11"," Olajbogyó utca 6., 11",47.4557508,19.0232162655976
"55",13," Danubius utca",76,3,NA,3e+05,"new","high",NA,4,8,"Yes",NA,NA,"No",NA,"immediately","1 év","panorama","No","Yes",NA,NA,"street","2019","16",NA," Danubius utca,13"," Danubius utca, 13",47.5479832,19.0660088
"56",13," Pannónia Ház",53,2,NA,2e+05,"new",NA,NA,4,7,"Yes","less than 3","Yes","Partially",NA,NA,"1 év",NA,NA,"Yes","No","Yes","can buy","2019","9.53",NA," Pannónia Ház,13"," Pannónia Ház, 13",47.5225961,19.0576424890314
"57",7," Király utca",55,2,NA,140000,"good","high",NA,3,5,"Yes","3 or more","No","Yes",45000,"immediately","1 év","street","No","Yes","No","No","street","1950 elott","2",NA," Király utca,7"," Király utca, 7",47.4986307,19.0573733
"58",11," Fonyód utca 17.",110,4,NA,230000,"renovated","high",NA,2,2,"No",NA,"No","No",NA,"immediately","1 év","garden","Yes","Yes","Yes",NA,"street",NA,NA,NA," Fonyód utca 17.,11"," Fonyód utca 17., 11",47.44442075,19.033146077146
"59",9," Ferenc tér",45,2,NA,65000,"renovated","high",NA,NA,NA,"Yes","less than 3","Yes","Yes",20000,"immediately","6 hónap","panorama","No","Yes","No","No","street","2020",NA,NA," Ferenc tér,9"," Ferenc tér, 9",47.4811193,19.0743938206779
"60",9," Ráday utca",58,2,NA,170000,"renovated","high",NA,1,3,"No","3 or more",NA,"Yes",40000,"immediately","1 év","street","No","No","No",NA,NA,NA,NA,NA," Ráday utca,9"," Ráday utca, 9",47.4875869,19.0628292
"61",9," Nádasdy utca",28,1,NA,135000,NA,NA,NA,6,NA,"Yes",NA,"No","Yes",15000,"immediately","1 év","yard",NA,"Yes",NA,NA,"street",NA,"2",NA," Nádasdy utca,9"," Nádasdy utca, 9",47.47338375,19.0769028880513
"62",6," Zichy Jeno utca 41.",53,3,NA,130000,NA,"high",NA,3,3,"No",NA,"No","Yes",NA,"immediately","1 év","yard",NA,"Yes","No",NA,"street",NA,NA,NA," Zichy Jeno utca 41.,6"," Zichy Jeno utca 41., 6",47.5056477,19.0591858
"63",9," Ráday utca",68,2,1,170000,"renovated","high",NA,1,5,"No","3 or more","No","Yes",40000,"immediately","1 év","garden","No","Yes","Yes","No","street","1950 elott",NA,NA," Ráday utca,9"," Ráday utca, 9",47.4875869,19.0628292
"64",11," Kondorosi út 12.",29,1,1,130000,"renovated","high","B",1,8,"Yes","3 or more","No","No",30000,"immediately","1 év","street","No","Yes","Yes","No","street","2001-2010 ","2",NA," Kondorosi út 12.,11"," Kondorosi út 12., 11",47.4507291,19.0391605
"65",9," Ráday utca 16.",100,4,NA,170000,"like new","high",NA,1,NA,"No","3 or more","No","Yes",80000,"immediately","nincs","yard","No","Yes","No","No",NA,NA,NA,NA," Ráday utca 16.,9"," Ráday utca 16., 9",47.4876585,19.0630853
"66",9," Lónyay utca 7.",65,4,NA,179000,"like new","average",NA,1,NA,"No","3 or more","Yes","Yes",70000,"immediately","nincs","street","No","Yes","No","No",NA,NA,NA,NA," Lónyay utca 7.,9"," Lónyay utca 7., 9",47.4879236,19.0608059
"67",13," Radnóti Miklós utca 40.",90,4,NA,199000,"like new","average",NA,NA,NA,NA,"less than 3","No","Yes",40000,"immediately","nincs","street","No","Yes","No","No",NA,NA,NA,NA," Radnóti Miklós utca 40.,13"," Radnóti Miklós utca 40., 13",47.5164537,19.0489347
"68",9," Viola utca 27-29.",40,2,NA,169900,"like new","high",NA,4,5,"Yes","less than 3","Yes","Yes",14000,"immediately","1 év","street","No","Yes",NA,NA,"can rent","2017","6",25000," Viola utca 27-29.,9"," Viola utca 27-29., 9",47.4805378,19.0758574325233
"69",9," Viola utca",40,2,NA,169900,"like new","high",NA,4,5,"Yes","less than 3","Yes","Yes",14000,"immediately","1 év","street","No","Yes",NA,"No","can rent","2017","6",25000," Viola utca,9"," Viola utca, 9",47.5378805,21.6189656
"70",13," Röntgen utca",30,1,NA,95000,"renovated","average",NA,NA,5,"Yes","less than 3","No","No",NA,"immediately","1 év","garden","No","Yes","No","No","street",NA,NA,NA," Röntgen utca,13"," Röntgen utca, 13",47.5182686,19.0605663
"71",13," Pannónia Ház",54,2,NA,2e+05,"new",NA,NA,3,7,"Yes","less than 3","Yes","Partially",NA,"immediately","1 év",NA,NA,"Yes","No","Yes",NA,"2019","7.78",NA," Pannónia Ház,13"," Pannónia Ház, 13",47.5225961,19.0576424890314
"72",5," Vigyázó Ferenc utca",56,2,NA,260000,"like new","high",NA,1,5,"Yes","3 or more","Yes","Yes",NA,"immediately","1 év","yard","No","Yes",NA,NA,"can rent",NA,NA,50000," Vigyázó Ferenc utca,5"," Vigyázó Ferenc utca, 5",47.50097045,19.0484585947646
"73",9," Viola utca",45,2,NA,179900,"like new","high",NA,2,5,"Yes","less than 3","Yes","Yes",14000,"immediately","1 év","street","No","Yes","Yes","No","can rent","2017","4",30000," Viola utca,9"," Viola utca, 9",47.5378805,21.6189656
"74",9," Viola utca",45,2,NA,179900,"like new","high",NA,2,5,"Yes",NA,"Yes","Yes",14000,"immediately","1 év","yard","No","Yes","Yes","No","can rent","2017","4",30000," Viola utca,9"," Viola utca, 9",47.5378805,21.6189656
"75",9," Viola utca",45,2,NA,179900,"like new","high",NA,3,5,"Yes","less than 3","Yes","Yes",12000,"immediately","1 év","street","No","Yes","Yes","No","street","2017","3",NA," Viola utca,9"," Viola utca, 9",47.5378805,21.6189656
"76",9," Viola utca",45,2,NA,179900,"like new","high",NA,3,5,"Yes","less than 3","Yes","Yes",12000,"immediately","1 év","street","No","Yes","Yes","No","street","2017","3",NA," Viola utca,9"," Viola utca, 9",47.5378805,21.6189656
"77",9," Viola utca",50,2,NA,179900,"good","high",NA,1,5,"Yes","less than 3","Yes","Yes",16000,"immediately","1 év","street","Yes","Yes",NA,"No","street","2001-2010 ","10",NA," Viola utca,9"," Viola utca, 9",47.5378805,21.6189656
"78",9," Viola utca",50,2,NA,179900,"good","high",NA,1,5,"Yes","less than 3","Yes","Yes",16000,"immediately","1 év","street","No","Yes",NA,"No","street","2001-2010 ","10",NA," Viola utca,9"," Viola utca, 9",47.5378805,21.6189656
"79",6," Király utca",75,3,NA,159000,"new","high",NA,1,NA,"Yes",NA,"Yes","Yes",NA,"immediately","1 év","street",NA,"Yes","No","No","street","2001-2010 ",NA,NA," Király utca,6"," Király utca, 6",47.4985292,19.0560457632683
"80",6," Vörösmarty utca",36,1,NA,140000,"renovated","average",NA,3,4,"No","3 or more","No","Yes",NA,"immediately","1 év","yard","No","Yes","No","No","street","1950 elott",NA,NA," Vörösmarty utca,6"," Vörösmarty utca, 6",48.4002545,21.6572081936842
"81",2," Ady Endre utca",50,2,NA,160000,"renovated","high",NA,1,4,"Yes",NA,"Yes","Yes",NA,"immediately","1 év","yard","No","Yes",NA,NA,NA,NA,NA,NA," Ady Endre utca,2"," Ady Endre utca, 2",46.8104556,20.0032836474349
"82",13," Pannónia Ház",53,2,NA,2e+05,"new",NA,NA,3,5,"Yes","3 or more","Yes","No",NA,"immediately","1 év",NA,NA,NA,NA,NA,"can buy","2019","5.3",NA," Pannónia Ház,13"," Pannónia Ház, 13",47.5225961,19.0576424890314
"83",2," Kelemen László utca",41,1,NA,140000,"good","high",NA,1,3,"No",NA,"No","Yes",23000,NA,"1 év","garden","No","Yes","Yes","No","included","1950-1980 ",NA,NA," Kelemen László utca,2"," Kelemen László utca, 2",46.2503979,20.1475885
"84",3," Uszály utca",30,1,NA,110000,"renovated","high",NA,NA,3,"No",NA,"No","Yes",NA,"immediately","1 év","street",NA,"Yes","Yes",NA,"street",NA,NA,NA," Uszály utca,3"," Uszály utca, 3",47.5283478,19.0397596554725
"85",13," Lehel utca 4",58,3,NA,120000,"good","high",NA,1,5,"Yes",NA,"No","Yes",NA,"immediately","1 év","street",NA,"Yes","No",NA,"street",NA,"15",NA," Lehel utca 4,13"," Lehel utca 4, 13",47.51845285,19.06405724508
"86",11," Szurdok utca",65,3,NA,240000,"like new","high","AA++",4,5,"Yes","less than 3","Yes","Yes",15000,"immediately","1 év","panorama","No","Yes","No","No","can rent","2017",NA,15000," Szurdok utca,11"," Szurdok utca, 11",47.8170947,18.8752707
"87",11," Sasad",77,3,NA,275000,"like new",NA,NA,3,NA,"Yes",NA,"Yes","Partially",NA,"immediately","1 év","panorama","No","Yes",NA,NA,"can rent","2011","5",25000," Sasad,11"," Sasad, 11",47.4741879,18.9907495
"88",6," Király utca",52,1,2,150000,"like new","high",NA,1,3,"No","3 or more","No","Yes",NA,"immediately","1 év","yard","No","Yes","No","No","street","1950 elott",NA,NA," Király utca,6"," Király utca, 6",47.4985292,19.0560457632683
"89",9," Dandár utca",85,3,NA,299900,"renovated","very high",NA,6,6,"Yes",NA,"Yes","Yes",NA,"immediately","1 év","street","Yes","Yes",NA,"No",NA,"2001-2010 ","12",NA," Dandár utca,9"," Dandár utca, 9",47.4766533,19.0717917
"90",7," Wesselényi utca 15.",65,3,NA,140000,"like new","average",NA,1,NA,"No","3 or more","Yes","Yes",60000,"immediately","nincs",NA,"No","Yes","No","No",NA,NA,NA,NA," Wesselényi utca 15.,7"," Wesselényi utca 15., 7",47.49740565,19.063354250935
"91",2," Török utca 4.",100,6,NA,250000,"like new","average",NA,1,NA,"No","3 or more","Yes","Yes",110000,"immediately","nincs",NA,"No","Yes","No","No",NA,NA,NA,NA," Török utca 4.,2"," Török utca 4., 2",47.5149319,19.0357533
"92",13," Szegedi út",76,3,NA,165000,"like new","very high",NA,4,NA,"Yes",NA,"Yes","No",18000,"immediately","1 év","street",NA,NA,NA,NA,"included","2001-2010 ","12",NA," Szegedi út,13"," Szegedi út, 13",46.1850485,18.9586049
"93",13," Béke utca",38,1,1,129000,"renovated","high",NA,NA,3,"No","less than 3","Yes","Yes",20000,"immediately","1 év","street","No","Yes","No","No","street","1950-1980 ",NA,NA," Béke utca,13"," Béke utca, 13",46.7825035,18.0121131
"94",7," Akácfa utca",56,2,NA,130000,"good","high",NA,2,5,"Yes",NA,NA,"Yes",NA,"immediately","1 év","yard","No","Yes","No","No",NA,NA,NA,NA," Akácfa utca,7"," Akácfa utca, 7",47.963756,22.3075265
"95",7," Károly körút 5.",30,1,NA,1e+05,"renovated","high",NA,1,NA,"Yes","less than 3","Yes","Yes",30000,"immediately","nincs","street","No","Yes","No","No",NA,NA,NA,NA," Károly körút 5.,7"," Károly körút 5., 7",47.4961694,19.0587545
"96",13," Béke utca",40,1,1,139000,"renovated","high",NA,NA,3,"No",NA,"Yes","Yes",20000,"immediately",NA,"street","No","Yes","No",NA,"street",NA,NA,NA," Béke utca,13"," Béke utca, 13",46.7825035,18.0121131
"97",13," Frangepán utca 76.",41,2,NA,149000,"new","high",NA,4,5,"Yes","less than 3","No","Partially",NA,"immediately",NA,"street",NA,"Yes","No",NA,"can rent","2018","3",20000," Frangepán utca 76.,13"," Frangepán utca 76., 13",47.53316645,19.0865605887869
"98",9," Nádasdy utca 15.",41,2,NA,150000,"new","high",NA,7,9,"Yes","less than 3",NA,"Partially",NA,"immediately","1 év","garden","No",NA,"No","No","street","2020","7",NA," Nádasdy utca 15.,9"," Nádasdy utca 15., 9",47.4716158,19.0786855
"99",1," Toldy Ferenc utca 48.",43,1,NA,120000,"good","high",NA,NA,4,"No",NA,"No","Yes",NA,"not immediately","1 év","street",NA,"Yes",NA,NA,"street",NA,NA,NA," Toldy Ferenc utca 48.,1"," Toldy Ferenc utca 48., 1",47.5064147,19.033906
"100",9," Mester utca 83.",32,1,NA,110000,"new",NA,NA,4,8,"Yes",NA,NA,"No",14000,"immediately","nincs","panorama",NA,"Yes",NA,"No",NA,NA,NA,NA," Mester utca 83.,9"," Mester utca 83., 9",47.47164575,19.081058575
"101",7," Thököly út",29,1,NA,90000,"renovated","high",NA,2,3,"No","less than 3","No","Yes",25000,"immediately","1 év","yard","No","Yes","No","No","street","2021",NA,NA," Thököly út,7"," Thököly út, 7",47.44537895,19.1830649327448
"102",9," Lónyay utca 13.",41,2,NA,110000,"renovated","high",NA,1,3,NA,NA,"No","Yes",NA,"immediately","1 év","yard",NA,"Yes","No",NA,"street",NA,NA,NA," Lónyay utca 13.,9"," Lónyay utca 13., 9",47.4865415,19.0614793
"103",13," Újlipótváros",38,1,NA,120000,"like new","high",NA,1,3,NA,"3 or more","No","Yes",20000,NA,"1 év","street","No","Yes",NA,NA,"street","1950-1980 ",NA,NA," Újlipótváros,13"," Újlipótváros, 13",47.4866865,18.9974695
"104",4," József Attila utca",44,1,1,166500,"new","high",NA,2,NA,"Yes",NA,NA,"Yes",NA,"immediately","1 év",NA,NA,"Yes","Yes","No",NA,NA,"10",NA," József Attila utca,4"," József Attila utca, 4",47.5590007,19.5195487935057
"105",1," Alagút utca 2.",55,2,NA,120000,"like new","high",NA,NA,NA,NA,"3 or more","No","Yes",50000,"immediately","nincs","street","No","Yes","No","No",NA,NA,NA,NA," Alagút utca 2.,1"," Alagút utca 2., 1",47.49712025,19.0348046865885
"106",9," Liliom utca",40,1,1,139000,"renovated","high",NA,1,4,"Yes","less than 3","Yes","Yes",NA,"immediately","1 év","street",NA,"Yes","No","No","street","1981-2000 ",NA,NA," Liliom utca,9"," Liliom utca, 9",47.42285045,19.0314380709717
"107",13," Dévai utca 19.",53,2,NA,160000,"new","very high","CC",6,7,"Yes","less than 3","Yes","Yes",24000,"immediately","1 év","garden","Yes","Yes","No","No","can rent","2021","5",22000," Dévai utca 19.,13"," Dévai utca 19., 13",47.5191565,19.0651017
"108",7," Wesselényi utca 4.",30,1,NA,90000,"renovated","high",NA,2,NA,"Yes","3 or more","Yes","Yes",30000,"immediately","nincs","yard","No","Yes","No","No",NA,NA,NA,NA," Wesselényi utca 4.,7"," Wesselényi utca 4., 7",47.4964796,19.060201
"109",9," Nádasdy utca",36,1,NA,139000,"new","high",NA,8,9,"Yes",NA,"Yes","Yes",15000,"immediately","nincs","panorama","No","Yes","No",NA,"street","2017","3",NA," Nádasdy utca,9"," Nádasdy utca, 9",47.47338375,19.0769028880513
"110",13," Taksony utca",46,2,NA,170000,"new","high","CC",4,8,"Yes","less than 3","Yes","Yes",16000,"immediately","1 év","garden","Yes","Yes","No","No","can rent","2021","10",22000," Taksony utca,13"," Taksony utca, 13",47.45750215,19.1253557738682
"111",6," Szív utca",35,1,1,105000,"renovated","high","AA++",NA,3,"No","3 or more","Yes","Yes",30000,"not immediately","1 év","street","No","Yes","No","No","street","2021",NA,NA," Szív utca,6"," Szív utca, 6",47.5075276,19.0712903
"112",13," Alig utca 5.",42,1,NA,120000,"renovated","high",NA,2,NA,"Yes",NA,"Yes","No",NA,"immediately","1 év","street",NA,"Yes","Yes",NA,"street",NA,NA,NA," Alig utca 5.,13"," Alig utca 5., 13",47.518046,19.0592435
"113",6," Szinyei Merse utca 14.",49,2,NA,135000,"like new","high",NA,3,4,"Yes",NA,"No","No",NA,"immediately","1 év","yard",NA,NA,"No","No","street",NA,NA,NA," Szinyei Merse utca 14.,6"," Szinyei Merse utca 14., 6",47.5114132,19.0677338
"114",14," Stefánia út",57,2,NA,110000,"renovated","high",NA,0.5,4,NA,"less than 3",NA,"Yes",24000,"immediately","6 hónap","street","No","Yes","Yes","No","street","1950-1980 ",NA,NA," Stefánia út,14"," Stefánia út, 14",47.50548045,19.0975865045831
"115",11," Madárhegy",70,3,NA,361400,"like new","very high",NA,1,4,"Yes","less than 3","Yes","Partially",NA,"immediately","nincs","panorama","No","Yes","No","No","can rent","2018","12.5",30000," Madárhegy,11"," Madárhegy, 11",47.4663234,18.9838656581748
"116",6," Csengery utca 51.",49,3,NA,150000,"like new","high",NA,1,4,"No","less than 3","Yes","Yes",16000,"immediately","nincs","yard","No","Yes",NA,NA,"street","1950 elott",NA,NA," Csengery utca 51.,6"," Csengery utca 51., 6",47.5080586,19.0634175
"117",4," Wolfner utca",44,1,1,166500,"new","high",NA,2,NA,"Yes",NA,"Yes","Yes",NA,"immediately","1 év",NA,NA,"Yes",NA,NA,NA,"2020","44",NA," Wolfner utca,4"," Wolfner utca, 4",47.564595,19.0805572
"118",13," Kassák Lajos utca 67.",32,1,NA,140000,"new","high",NA,7,9,"Yes","less than 3","No","Partially",17000,"immediately","6 hónap","yard","No","Yes","No","No","can rent","2020","4",20000," Kassák Lajos utca 67.,13"," Kassák Lajos utca 67., 13",47.5293935,19.0698248
"119",11," Madárhegy",70,3,NA,362000,"like new","high",NA,1,4,"Yes","less than 3","Yes","Partially",NA,"immediately","1 év","panorama",NA,"Yes","No",NA,"can rent","2018","12.5",30000," Madárhegy,11"," Madárhegy, 11",47.4663234,18.9838656581748
"120",11," Allende park",52,2,NA,135000,"good",NA,NA,4,4,NA,NA,NA,"No",27000,"immediately","1 év","street",NA,"Yes","No",NA,NA,NA,"6",NA," Allende park,11"," Allende park, 11",47.4541829,19.0315149
"121",2," Frankel Leó út 49.",30,1,NA,90000,"good","high",NA,5,5,"Yes",NA,"No","Yes",NA,"immediately","1 év","street",NA,"Yes","No",NA,"street",NA,NA,NA," Frankel Leó út 49.,2"," Frankel Leó út 49., 2",47.5216023,19.0371502
"122",22," Kölcsey utca 3.",45,1,NA,120000,"renovated","high",NA,NA,NA,NA,NA,NA,"Yes",NA,"immediately","1 év","garden","Yes","Yes","Yes",NA,"street",NA,NA,NA," Kölcsey utca 3.,22"," Kölcsey utca 3., 22",47.4280963,19.0365767980876
"123",4," Wolfner utca 4.",44,1,1,159000,"new","high",NA,1,NA,"Yes",NA,"Yes","Yes",12000,"immediately","1 év",NA,NA,"Yes",NA,NA,NA,"2020","13",NA," Wolfner utca 4.,4"," Wolfner utca 4., 4",47.564595,19.0805572
"124",13," Klapka utca",40,1,1,160000,"new","high",NA,8,8,"Yes","less than 3","Yes","No",NA,"immediately","1 év","panorama",NA,"Yes","No","No","can rent","2020","6",20000," Klapka utca,13"," Klapka utca, 13",47.5263241,19.0692002
"125",5," Molnár utca 10.",100,6,NA,280000,"renovated","very high",NA,2,NA,"No","3 or more","Yes","Yes",120000,"immediately","nincs","street","No","Yes","No","No",NA,NA,NA,NA," Molnár utca 10.,5"," Molnár utca 10., 5",47.49000005,19.0543489682879
"126",5," Váci utca 12.",100,4,NA,2e+05,"like new","average",NA,4,NA,"Yes","3 or more","Yes","Yes",80000,"immediately","nincs",NA,"No","Yes","No","No",NA,NA,NA,NA," Váci utca 12.,5"," Váci utca 12., 5",47.49490785,19.0522382259654
"127",13," Katona József utca 3.",86,4,NA,180000,"good","very high",NA,4,8,"Yes","less than 3","Yes",NA,40000,"immediately","1 év","street","No","Yes","Yes","No","street","1981-2000 ","4",NA," Katona József utca 3.,13"," Katona József utca 3., 13",47.5123805,19.056341
"128",9," Mester utca",41,2,NA,160000,"new","high",NA,1,8,"Yes",NA,NA,"No",25000,"immediately",NA,"garden","No","Yes","No",NA,"street",NA,NA,NA," Mester utca,9"," Mester utca, 9",47.4804576,19.070453
"129",14," Újvidék sétány",36,1,NA,109000,"good","average",NA,NA,NA,NA,"less than 3",NA,"Yes",NA,"immediately","1 év","garden","Yes",NA,"Yes","No","street","2001-2010 ",NA,NA," Újvidék sétány,14"," Újvidék sétány, 14",47.5113191,19.1105366
"130",14," Herminamezo",50,1,2,150000,"new","high",NA,7,7,"Yes",NA,"Yes","Yes",20000,"immediately","1 év","panorama",NA,"Yes","No","No","can rent",NA,"3",20000," Herminamezo,14"," Herminamezo, 14",47.5186841,19.0997228
"131",14," Hermina út",71,2,NA,2e+05,"renovated","high",NA,1,NA,"No","3 or more","Yes","Yes",NA,"immediately","1 év","street",NA,"Yes","No","No","included",NA,"1",NA," Hermina út,14"," Hermina út, 14",47.5112822,19.095943
"132",14," Cserto utca",46,1,1,120000,"good","high",NA,4,10,"Yes","less than 3","No","Yes",20000,"immediately","1 év","street","No","Yes","No","No","street","1981-2000 ",NA,NA," Cserto utca,14"," Cserto utca, 14",47.51433245,19.1448184962208
"133",11," Ringló út",50,2,NA,140000,"renovated","high",NA,1,3,"No",NA,NA,"Yes",39000,"not immediately","1 év","panorama",NA,"Yes","No",NA,"included",NA,"80",NA," Ringló út,11"," Ringló út, 11",47.43923665,19.031438304239
"134",19," Kosárfonó utca",37,1,1,120000,"renovated","high",NA,5,10,"Yes","less than 3",NA,"Yes",30000,"immediately","1 év","street",NA,"Yes","No","No","street",NA,"4",NA," Kosárfonó utca,19"," Kosárfonó utca, 19",47.4603573,19.1449658
"135",4," Wolfner utca",44,1,1,166500,"like new","high",NA,3,NA,"Yes",NA,"Yes","Yes",NA,"immediately","1 év","street",NA,"Yes","Yes","No","can rent",NA,"8",20000," Wolfner utca,4"," Wolfner utca, 4",47.564595,19.0805572
"136",9," Lónyay utca 36.",37,1,NA,1e+05,"renovated","high",NA,3,3,"Yes",NA,NA,"Yes",NA,"immediately","1 év","yard",NA,"Yes","No",NA,"street",NA,NA,NA," Lónyay utca 36.,9"," Lónyay utca 36., 9",47.4837849,19.0637992
"137",13," Csongor utca",40,1,1,140000,"like new","high",NA,3,7,"Yes","less than 3","Yes","Yes",15000,"immediately","1 év","yard","No","Yes","No","No","street","2001-2010 ",NA,NA," Csongor utca,13"," Csongor utca, 13",47.5565664,18.9398579
"138",13," Gömb utca",51,2,NA,155000,"like new","high",NA,5,8,"Yes","less than 3","Yes","Partially",20000,"immediately","1 év","street","No","Yes","No","No","can rent","2001-2010 ","5",15000," Gömb utca,13"," Gömb utca, 13",47.5302971,19.0754789
"139",13," Victor Hugo utca",54,2,NA,170000,"new","high","AA+",5,7,"Yes","less than 3","No","Partially",20000,"immediately","1 év","street","No","Yes","No","No","street","2013","10",NA," Victor Hugo utca,13"," Victor Hugo utca, 13",47.08641825,17.9046368880453
"140",11," Madárhegy",88,3,NA,279000,"like new","high",NA,1,3,"Yes","less than 3","Yes","Yes",NA,"immediately","1 év","garden","No","Yes",NA,"No","street","2001-2010 ","26",NA," Madárhegy,11"," Madárhegy, 11",47.4663234,18.9838656581748
"141",9," Mester utca",41,1,1,160000,"new","high","BB",1,8,"Yes","less than 3","No","No",15000,"immediately","1 év","yard","Yes","No","Yes","No","street","2020","16",NA," Mester utca,9"," Mester utca, 9",47.4804576,19.070453
"142",13," Váci út",35,1,1,120000,"renovated","high",NA,6,10,"Yes","less than 3","Yes","Partially",15000,"immediately","1 év","street","No","Yes","No","No","street","1981-2000 ",NA,NA," Váci út,13"," Váci út, 13",47.5626928,19.0787482822861
"143",13," Csata utca",43,1,1,140000,"new","high","AA",3,5,"Yes","less than 3","No","Partially",20000,"immediately","1 év","garden","No","Yes","No","No","street","2020","6",NA," Csata utca,13"," Csata utca, 13",47.5268,19.07545
"144",8," Somogyi Béla utca",70,2,NA,165000,"renovated","average",NA,2,4,"No","3 or more","No","Partially",NA,"immediately","1 év","street","No","Yes","Yes","No","street","1950 elott",NA,NA," Somogyi Béla utca,8"," Somogyi Béla utca, 8",47.495449,19.069813
"145",14," Újvidék sétány",50,2,NA,130000,"good","high",NA,1,2,"No","less than 3","No","No",NA,NA,"nincs","garden",NA,"Yes","No","No","street",NA,NA,NA," Újvidék sétány,14"," Újvidék sétány, 14",47.5113191,19.1105366
"146",13," Hegedus Gyula utca",160,4,1,349000,"renovated","high",NA,3,NA,"Yes","3 or more","Yes","No",NA,"immediately","1 év","street",NA,"Yes","Yes","No","street",NA,"3",NA," Hegedus Gyula utca,13"," Hegedus Gyula utca, 13",47.5169186,19.0556158
"147",11," Kelenföld",79,3,NA,239000,"like new","high",NA,2,4,"Yes","less than 3","Yes","Yes",NA,NA,"1 év","street","No","Yes","Yes","No","street","2012","13",NA," Kelenföld,11"," Kelenföld, 11",47.4642992,19.0206155
"148",6," Szinyei Merse utca 14.",76,3,NA,180000,"like new","very high",NA,4,4,"Yes",NA,"Yes","No",15400,NA,"1 év","yard",NA,NA,"No","No","street",NA,NA,NA," Szinyei Merse utca 14.,6"," Szinyei Merse utca 14., 6",47.5114132,19.0677338
"149",14," Kövér Lajos utca",50,2,NA,130000,"new","high","C",3,5,"Yes","less than 3","No","No",20000,"immediately","1 év","street","No","Yes","No","No","must rent","2018","6",20000," Kövér Lajos utca,14"," Kövér Lajos utca, 14",47.5127191,19.1163528
"150",11," Fehérvári út",33,1,1,120000,"renovated","high",NA,7,10,"Yes","less than 3","No","Yes",15000,"immediately","1 év","panorama","No","Yes","No","No","street","1981-2000 ",NA,NA," Fehérvári út,11"," Fehérvári út, 11",47.6808786,17.6572794881406
"151",7," Dob utca",47,1,1,140000,"renovated","high",NA,1,2,"No","3 or more","No","Yes",20000,"not immediately","1 év","street","No","Yes","No","No","street","1950-1980 ",NA,NA," Dob utca,7"," Dob utca, 7",47.4970951,19.0601143
"152",13," Klapka utca",40,1,1,160000,"new","high",NA,8,8,"Yes","less than 3","Yes","No",15000,"immediately","1 év","panorama","No","Yes","No","No","can rent","2020","6",20000," Klapka utca,13"," Klapka utca, 13",47.5263241,19.0692002
"153",13," Kassák Lajos utca",40,2,NA,160000,"new","high",NA,4,7,"Yes","less than 3","No","By arrangement",15000,"immediately","1 év","street","No","Yes","No","No","can rent","2020","5",20000," Kassák Lajos utca,13"," Kassák Lajos utca, 13",47.51932255,19.0631916318273
"154",6," Király utca",50,2,NA,145000,"renovated","high",NA,1,3,"Yes","3 or more","No","Yes",20000,"immediately","1 év","yard","No","Yes","No","No","street","1950-1980 ",NA,NA," Király utca,6"," Király utca, 6",47.4985292,19.0560457632683
"155",13," Jakab József utca",42,2,NA,160000,"new","high",NA,1,7,"Yes","less than 3","No","No",20000,"not immediately","1 év","street","No","Yes","No","No","street","2019","2",NA," Jakab József utca,13"," Jakab József utca, 13",47.5375888,19.0641727
"156",5," Deák Ferenc tér",39,1,NA,120000,"good","high",NA,5,NA,"Yes","3 or more","Yes","No",25000,"immediately","1 év","panorama",NA,NA,NA,NA,NA,NA,"3",NA," Deák Ferenc tér,5"," Deák Ferenc tér, 5",46.90634175,19.688150583645
"157",13," Berettyó utca 2.",56,3,NA,225000,"new","high",NA,2,6,"Yes","less than 3","Yes","Yes",40000,"immediately","1 év","street","No",NA,NA,"No","can rent","2019","6",20000," Berettyó utca 2.,13"," Berettyó utca 2., 13",47.5524885,19.0777506
"158",6," Külso-Terézváros",108,3,NA,330000,"renovated","luxury","AA",2,3,"Yes","3 or more","No","Yes",18500,"immediately","1 év","street","No","Yes",NA,"No","street","1950 elott",NA,NA," Külso-Terézváros,6"," Külso-Terézváros, 6",47.4577147,19.0943789
"159",11," Fehérvári út",54,2,NA,110000,"good","high",NA,3,10,"Yes","less than 3","No","Yes",20000,"immediately","1 év","street","No","Yes","Yes","No","street","1981-2000 ",NA,NA," Fehérvári út,11"," Fehérvári út, 11",47.6808786,17.6572794881406
"160",9," Mester utca",75,2,1,160000,"good","high",NA,5,5,"Yes","3 or more","No","Yes",25000,"immediately","1 év","street","No","Yes","No","No","street","1950 elott",NA,NA," Mester utca,9"," Mester utca, 9",47.4804576,19.070453
"161",13," Mór utca",35,1,1,130000,"like new","high",NA,5,5,"Yes","less than 3","Yes","No",15000,"immediately","1 év","street","No","No","No","No","street","2001-2010 ",NA,NA," Mór utca,13"," Mór utca, 13",47.5241449333333,19.0830435666667
"162",8," Puskin utca",62,2,1,180000,"renovated","average",NA,2,4,"No","3 or more","Yes","Yes",NA,"immediately","6 hónap","yard","No","Yes","No","No","street","1950 elott",NA,NA," Puskin utca,8"," Puskin utca, 8",47.4937279,19.0631818
"163",9," Mihálkovics utca",98,3,NA,150000,"good","high",NA,NA,4,"No","less than 3","No","Partially",NA,"immediately","1 év","street","No","Yes","No","No","street","1950 elott",NA,NA," Mihálkovics utca,9"," Mihálkovics utca, 9",47.4780046,19.0842548
"164",16," Budapesti út",55,2,NA,130000,"renovated","high",NA,3,3,"No",NA,NA,"Partially",35000,"immediately","1 év","street","No","Yes","Yes",NA,"street",NA,"2.5",NA," Budapesti út,16"," Budapesti út, 16",47.4611911,18.9665540492261
"165",12," Greguss utca",67,2,1,195000,"renovated","high",NA,1,3,"No","3 or more","Yes","Yes",NA,"immediately","1 év","street","No","Yes","No","No","street","1950 elott",NA,NA," Greguss utca,12"," Greguss utca, 12",47.498969,19.0218217
"166",13," Kárpát utca",68,3,NA,140000,"good","high",NA,10,10,"Yes","less than 3","No","No",NA,"immediately","1 év","street",NA,"Yes",NA,NA,"street",NA,NA,NA," Kárpát utca,13"," Kárpát utca, 13",48.19996535,21.5302655182333
"167",11," Mezokövesd út",34,1,NA,1e+05,"renovated","high",NA,3,4,"No",NA,"Yes","Yes",NA,"not immediately","1 év","street",NA,"Yes","No",NA,"street",NA,NA,NA," Mezokövesd út,11"," Mezokövesd út, 11",47.4410148,19.036968
"168",6," Bajnok utca",45,2,NA,130000,"renovated",NA,NA,2,NA,"No",NA,"No","Yes",NA,"not immediately","1 év","street",NA,"Yes","No","No",NA,NA,NA,NA," Bajnok utca,6"," Bajnok utca, 6",47.5107301,19.067378
"169",1," Toldy Ferenc utca 55.",63,3,NA,2e+05,"good","very high",NA,3,5,"No","less than 3","Yes","By arrangement",22365,"immediately","3 hónap","panorama","No","Yes","Yes","No","street","1950-1980 ",NA,NA," Toldy Ferenc utca 55.,1"," Toldy Ferenc utca 55., 1",47.5064147,19.033906
"170",11," Madárhegy",70,3,NA,361400,"like new","high",NA,1,4,"Yes","less than 3","Yes","Partially",NA,"immediately","1 év","panorama","No","Yes","No","No","can rent","2018","12.5",30000," Madárhegy,11"," Madárhegy, 11",47.4663234,18.9838656581748
"171",13," Angyalföld – Loportárdulo",48,2,NA,180000,NA,"high",NA,7,8,"Yes","less than 3","Yes","Yes",NA,"immediately","1 év",NA,NA,"Yes",NA,NA,"can rent","2020","6",30000," Angyalföld – Loportárdulo,13"," Angyalföld – Loportárdulo, 13",47.5226561,19.0706763
"172",1," Jégverem utca 2.",90,3,NA,180000,"like new",NA,NA,2,NA,"No","less than 3","Yes","Yes",70000,"immediately","nincs","street",NA,"Yes",NA,NA,NA,NA,NA,NA," Jégverem utca 2.,1"," Jégverem utca 2., 1",47.4999338,19.0402194
"173",11," Hídvég utca",66,1,2,160000,"good","high",NA,NA,4,NA,"3 or more",NA,"Yes",30000,"immediately","1 év","garden",NA,"Yes",NA,NA,NA,NA,NA,NA," Hídvég utca,11"," Hídvég utca, 11",47.4717041,19.0306411
"174",13," Mór utca",58,2,1,2e+05,"like new","high",NA,1,NA,"Yes","less than 3","Yes","Yes",NA,"immediately","1 év","street","No","Yes","No","No",NA,"2001-2010 ","20",NA," Mór utca,13"," Mór utca, 13",47.5241449333333,19.0830435666667
"175",11," Kanizsai utca",43,1,NA,129000,"good","high",NA,4,6,"Yes",NA,"Yes","Yes",NA,"immediately","nincs","street","No","Yes",NA,"No","can rent",NA,"6",NA," Kanizsai utca,11"," Kanizsai utca, 11",47.4726408,19.0439973971482
"176",8," Kun utca 4.",55,2,NA,140000,"like new",NA,NA,1,6,"Yes",NA,"Yes","Yes",NA,"immediately","1 év","street",NA,"Yes","No",NA,"must rent",NA,NA,20000," Kun utca 4.,8"," Kun utca 4., 8",47.49513505,19.0812293075785
"177",18," Fenyofa utca",35,1,NA,115000,"like new","luxury","BB",3,5,"Yes",NA,NA,"No",10000,"immediately","6 hónap",NA,NA,NA,NA,"No","street","2001-2010 ","4",NA," Fenyofa utca,18"," Fenyofa utca, 18",47.4146534,19.204921
"178",14," Füredi utca",55,1,2,150000,"renovated",NA,NA,4,10,"Yes","less than 3","Yes",NA,30000,"immediately","1 év","garden",NA,NA,"No","No","street",NA,NA,NA," Füredi utca,14"," Füredi utca, 14",47.0851205,17.9118925
"179",8," Ciprus utca 8.",43,2,NA,140000,"like new","high",NA,1,8,"Yes","less than 3","Yes","Yes",NA,"immediately","1 év","street","No",NA,"No","No","can rent","2001-2010 ","8",25000," Ciprus utca 8.,8"," Ciprus utca 8., 8",47.4931035,19.1054194
"180",13," Csata utca 23.",30,1,NA,120000,"new","high","AA",1,6,"Yes","less than 3","No","Yes",15000,"immediately","1 év","yard","No","Yes","No","No",NA,"2021","8",NA," Csata utca 23.,13"," Csata utca 23., 13",47.5281795,19.0771102
"181",8," Kiss József utca",58,2,1,150000,"good","high",NA,1,NA,"No",NA,NA,"Yes",14600,"immediately","nincs","yard",NA,"Yes","No","No","street",NA,NA,NA," Kiss József utca,8"," Kiss József utca, 8",47.4966797,19.0747695
"182",11," Körtevirág utca",41,2,NA,180000,"new","high",NA,4,4,"Yes","less than 3","Yes","Yes",25000,"immediately","1 év","garden","No","Yes","No","No","can rent","2018","8",20000," Körtevirág utca,11"," Körtevirág utca, 11",47.4684142,19.0079706
"183",14," Répásy Mihály utca 7.",33,1,NA,130000,"renovated","high","EE",NA,2,"No","less than 3","No","Yes",NA,"immediately","6 hónap","street","Yes","Yes","No","No","street","1981-2000 ",NA,NA," Répásy Mihály utca 7.,14"," Répásy Mihály utca 7., 14",47.5158339,19.1207448
"184",2," Tárogató út",67,2,1,190000,"renovated","high",NA,NA,3,"No","less than 3","No","Partially",15000,"not immediately","1 év","garden","No","Yes","Yes","No","included","1950-1980 ","6",NA," Tárogató út,2"," Tárogató út, 2",47.5207309,18.9914869
"185",13," Felka utca",45,1,2,140000,"good","very high",NA,2,5,"No","3 or more","Yes","Yes",20000,"immediately","1 év","street","No","Yes","No","No","street","1950 elott","3",NA," Felka utca,13"," Felka utca, 13",47.5157183,19.0534133
"186",12," Maros utca 17.",43,1,NA,115000,"renovated","high","AA+",1,3,"No","3 or more","No","By arrangement",25000,"immediately","nincs","street","No","Yes",NA,"No","street","1950 elott",NA,NA," Maros utca 17.,12"," Maros utca 17., 12",47.50426775,19.0224282521495
"187",7," Klauzál utca",39,1,1,125000,"like new","high",NA,1,NA,"Yes",NA,"Yes","Yes",35000,NA,"1 év",NA,"No","Yes","No","No","street",NA,NA,NA," Klauzál utca,7"," Klauzál utca, 7",47.4973836,19.0676229
"188",9," Epreserdo utca",55,1,1,130000,"renovated","average",NA,3,4,"No","less than 3","Yes","Partially",NA,"immediately","1 év","garden","No","No","No","No","street","1950-1980 ","4",NA," Epreserdo utca,9"," Epreserdo utca, 9",47.4583931,19.1123342
"189",13," Szent László út 27.",50,2,NA,130000,"renovated","average",NA,NA,4,"Yes","less than 3","No","Partially",35000,"immediately","1 év","street","No","Yes","No","No","street","1950-1980 ",NA,NA," Szent László út 27.,13"," Szent László út 27., 13",47.5271307,19.0860015
"190",21," Cirmos sétány",48,1,1,130000,"like new","high",NA,2,4,"No","less than 3",NA,"Yes",30000,"immediately","1 év","garden",NA,"Yes","No","No","street","1981-2000 ","3",NA," Cirmos sétány,21"," Cirmos sétány, 21",47.40531475,19.0730245583625
"191",11," Sáfrány utca 10.",36,1,1,120000,"good","high","CC",NA,2,"No","less than 3","No","Yes",16000,"not immediately","1 év","garden","Yes","Yes","No","No","street","1981-2000 ",NA,NA," Sáfrány utca 10.,11"," Sáfrány utca 10., 11",47.4502841,19.0335319244244
"192",7," Dohány utca",31,1,NA,145000,"like new","high",NA,1,5,"Yes",NA,NA,"Yes",8000,"immediately","nincs","street","No","Yes","No","No","street","2011",NA,NA," Dohány utca,7"," Dohány utca, 7",47.4953393,19.062168
"193",9," Berzenczey utca 39-41",45,1,1,160000,"new","high",NA,2,4,"Yes","less than 3","Yes","Partially",27000,"immediately","1 év","yard","No","Yes","No","No",NA,"2001-2010 ","3",NA," Berzenczey utca 39-41,9"," Berzenczey utca 39-41, 9",47.48364185,19.0747604468942
"194",2," Kapás utca",65,2,NA,115000,"good","high",NA,2,6,"Yes","3 or more","No","Yes",20,"not immediately","1 év","street",NA,"Yes",NA,"No",NA,"1950 elott",NA,NA," Kapás utca,2"," Kapás utca, 2",47.5083693,19.0329211
"195",14," Zsolnay Vilmos utca",40,1,1,120000,"like new","high","C",4,4,"No","less than 3","No","Yes",12000,"immediately","1 év","yard",NA,"Yes","No","No","street","2001-2010 ","3",NA," Zsolnay Vilmos utca,14"," Zsolnay Vilmos utca, 14",47.5313448,19.1231115
"196",16," Mészáros József utca",67,1,2,150000,"renovated",NA,NA,1,10,"Yes","less than 3","Yes","By arrangement",NA,"immediately","1 év","street",NA,NA,"No","No","street",NA,"7",NA," Mészáros József utca,16"," Mészáros József utca, 16",47.2539144,16.601856340599
"197",4," Károlyi István utca",50,1,1,150000,"new",NA,NA,2,5,"Yes",NA,"Yes","Yes",NA,"immediately","1 év","garden",NA,"Yes","No",NA,"can rent","2001-2010 ","6",20000," Károlyi István utca,4"," Károlyi István utca, 4",47.5649996,19.0797875
"198",7," Erzsébet körút 48.",56,3,NA,190000,"renovated",NA,NA,3,3,"No","3 or more","Yes","Yes",35000,"not immediately","nincs",NA,NA,"Yes",NA,NA,NA,"2017","7",NA," Erzsébet körút 48.,7"," Erzsébet körút 48., 7",47.5022,19.0666304
"199",3," Szentendrei út 22.",52,2,NA,120000,"good","high",NA,8,10,"Yes","less than 3","No","Partially",32000,"immediately","1 év","panorama","No","Yes","No","No","street","1950-1980 ",NA,NA," Szentendrei út 22.,3"," Szentendrei út 22., 3",47.5464339,19.0423236
"200",2," Árpád fejedelem útja 47.",40,1,NA,120000,"like new","high",NA,1,4,"Yes","less than 3",NA,"Yes",NA,"immediately","1 év",NA,NA,"Yes",NA,NA,NA,NA,NA,NA," Árpád fejedelem útja 47.,2"," Árpád fejedelem útja 47., 2",47.5270072,19.0396792
"201",13," Párkány utca",58,1,2,145000,NA,NA,NA,NA,NA,NA,NA,NA,NA,NA,NA,"nincs",NA,NA,NA,NA,NA,NA,NA,"3",NA," Párkány utca,13"," Párkány utca, 13",47.528494,19.0604886
"202",1," Naphegy utca 59.",44,2,NA,170000,"renovated","high",NA,1,3,"No",NA,"No","No",NA,"immediately","nincs","garden",NA,"Yes","Yes","No",NA,"1981-2000 ","3",NA," Naphegy utca 59.,1"," Naphegy utca 59., 1",47.4927728,19.0362030965223
"203",10," Gozmozdony utca",50,2,NA,140000,"renovated",NA,NA,6,10,"Yes",NA,NA,"No",NA,"immediately","1 év","panorama","No","Yes","No","No","street",NA,"3",NA," Gozmozdony utca,10"," Gozmozdony utca, 10",47.4694564,19.1580543
"204",13," Dagály utca 13-15",42,2,NA,125000,"renovated","average",NA,NA,2,"No","less than 3","No","Partially",20000,"immediately","1 év","garden","Yes",NA,NA,NA,"street","1950-1980 ",NA,NA," Dagály utca 13-15,13"," Dagály utca 13-15, 13",47.5375896,19.0639879
"205",9," Ülloi út",56,1,1,120000,"good","high",NA,NA,6,"Yes","less than 3","No","Yes",NA,"not immediately","nincs","street","No","Yes","No","No","street","1950-1980 ",NA,NA," Ülloi út,9"," Ülloi út, 9",47.4886843,19.0634554
"206",11," Vincellér utca",69,2,1,150000,"good","high",NA,2,6,"Yes","less than 3","No","No",30000,"immediately","1 év",NA,"No",NA,"Yes",NA,"street","1950-1980 ","15",NA," Vincellér utca,11"," Vincellér utca, 11",46.34357315,18.6953186434467
"207",7," Marek József utca 41.",50,1,1,175000,"renovated","high",NA,4,4,"Yes",NA,NA,"Yes",NA,"immediately","1 év","panorama","No",NA,NA,"No","street",NA,NA,NA," Marek József utca 41.,7"," Marek József utca 41., 7",47.507085,19.0847886
"208",8," Gyorffy István utca 8.",53,1,1,130000,"renovated","high",NA,2,3,"No","less than 3","Yes","No",20000,"immediately","1 év","street","Yes","Yes","No","No","street","1950-1980 ","5",NA," Gyorffy István utca 8.,8"," Gyorffy István utca 8., 8",47.47842225,19.0973691
"209",13," Pozsonyi út 54.",68,2,1,349000,"good","very high",NA,6,6,"Yes","3 or more","Yes","By arrangement",NA,"not immediately","1 év","panorama","No",NA,NA,"No","street","1950 elott","26",NA," Pozsonyi út 54.,13"," Pozsonyi út 54., 13",47.52049225,19.052422921737
"210",7," Szinva utca",57,3,NA,170000,NA,"high",NA,3,3,NA,NA,NA,"Yes",1,"immediately","nincs",NA,NA,"Yes","No","No",NA,NA,NA,NA," Szinva utca,7"," Szinva utca, 7",47.5048983,19.0867982
"211",11," Kosztolányi Dezso tér",44,1,1,140000,"renovated",NA,NA,6,6,NA,NA,NA,"Partially",NA,"immediately","1 év","panorama",NA,"Yes","No",NA,NA,NA,"3",NA," Kosztolányi Dezso tér,11"," Kosztolányi Dezso tér, 11",47.47484705,19.0416351998585
"212",2," Csalogány utca 43.",71,3,NA,310000,"new","very high","AA++",4,6,"Yes","less than 3","Yes","Partially",NA,"immediately","1 év","garden","No","Yes","No","No","can rent","2021","21",20000," Csalogány utca 43.,2"," Csalogány utca 43., 2",47.5079939,19.0313207
"213",8," Tolnai Lajos utca 18.",39,1,1,120000,"like new",NA,NA,2,NA,"Yes","less than 3",NA,"Yes",NA,NA,"1 év","garden",NA,"Yes",NA,"No",NA,NA,"6",NA," Tolnai Lajos utca 18.,8"," Tolnai Lajos utca 18., 8",47.49367,19.0748576275295
"214",7," Nefelejcs utca 32.",64,2,NA,140000,"good",NA,NA,2,2,"No","3 or more","Yes","Partially",NA,"immediately","nincs","street",NA,NA,"No","No","street",NA,NA,NA," Nefelejcs utca 32.,7"," Nefelejcs utca 32., 7",47.5038843,19.0807954
"215",13," Loportár utca 20",50,2,NA,170000,"new","high",NA,4,8,"Yes","less than 3",NA,"Yes",NA,"immediately","1 év","street",NA,"Yes","No",NA,"can rent","2020","6",20000," Loportár utca 20,13"," Loportár utca 20, 13",47.5196257,19.0663537
"216",11," Váli utca",50,1,1,160000,"renovated",NA,NA,2,6,"Yes","less than 3","Yes","Yes",20000,"immediately","1 év","street","No","Yes","No","No","street",NA,"4",NA," Váli utca,11"," Váli utca, 11",47.4761344,19.0498962
"217",13," Faludi utca",62,2,1,170000,"good",NA,NA,7,10,"Yes",NA,"Yes",NA,27000,"not immediately","1 év",NA,NA,NA,NA,NA,NA,NA,"3",NA," Faludi utca,13"," Faludi utca, 13",47.5495130923077,19.0812093307692
"218",14," Gvadányi utca 44-46",48,1,1,150000,"renovated",NA,NA,7,10,"Yes",NA,NA,"Partially",25000,"immediately","1 év","panorama",NA,NA,"No","No","street",NA,NA,NA," Gvadányi utca 44-46,14"," Gvadányi utca 44-46, 14",47.50865625,19.15101035
"219",13," Mohács utca",41,1,1,170000,"renovated","high",NA,1,8,"Yes","less than 3","Yes","Yes",40000,"not immediately","1 év","garden","No","Yes",NA,"No","street","2001-2010 ","4",NA," Mohács utca,13"," Mohács utca, 13",47.60552965,19.3681538
"220",11," Hegyalja út",42,1,1,170000,"renovated","high",NA,0.5,3,"No","less than 3","No","By arrangement",15000,"immediately","nincs","garden","No","Yes","Yes","No","street","1950-1980 ","5",NA," Hegyalja út,11"," Hegyalja út, 11",48.10842345,20.67553015
"221",7," Damjanich utca 27.",89,3,1,198000,"renovated","high",NA,0.5,3,NA,NA,"No","Yes",NA,"immediately","1 év","street",NA,"Yes","Yes","Yes","street","1950 elott",NA,NA," Damjanich utca 27.,7"," Damjanich utca 27., 7",47.5076224,19.0786414
"222",9," Máriássy utca 4.",80,4,NA,270000,"new","very high",NA,4,9,"Yes","less than 3","Yes","Partially",NA,"not immediately","1 év","street","No","Yes","No","No","can rent","2020","7",25000," Máriássy utca 4.,9"," Máriássy utca 4., 9",47.4702566,19.0782170163857
"223",11," Bártfai utca 1-3",45,2,NA,180000,"renovated","high",NA,2,3,"No","less than 3","Yes","Yes",NA,"immediately","1 év","yard",NA,"Yes",NA,"No","included","1950-1980 ","3",NA," Bártfai utca 1-3,11"," Bártfai utca 1-3, 11",47.46747285,19.0432563496714
"224",11," Budaörsi út",32,1,NA,120000,"renovated",NA,NA,0.5,4,"Yes","less than 3","No","Yes",20000,"immediately","6 hónap","panorama","No","Yes","No","No","street","1950 elott","5",NA," Budaörsi út,11"," Budaörsi út, 11",47.4842269,19.0254623
"225",16," Felsomalom utca 19-21",35,1,NA,130000,NA,NA,NA,NA,NA,NA,NA,NA,NA,NA,NA,"nincs",NA,NA,NA,NA,NA,NA,NA,"6",NA," Felsomalom utca 19-21,16"," Felsomalom utca 19-21, 16",47.5264823,19.2019234
"226",12," Ráth György utca",55,1,1,135000,"good",NA,NA,2,3,"No","3 or more","No","Partially",13000,"not immediately","1 év","panorama","No",NA,"No","No","street","1950 elott",NA,NA," Ráth György utca,12"," Ráth György utca, 12",47.49959015,19.0217129904028
"227",13," Radnóti Miklós utca 40.",42,1,NA,120000,"good",NA,NA,5,6,"Yes",NA,"Yes","Partially",30000,"immediately","1 év","street",NA,"Yes","No","No",NA,NA,NA,NA," Radnóti Miklós utca 40.,13"," Radnóti Miklós utca 40., 13",47.5164537,19.0489347
"228",7," Asbóth utca 14.",34,1,NA,150000,"like new","luxury","AA",3,5,"Yes","less than 3","Yes","Yes",30000,"immediately","1 év","street","No","Yes","No","No","street","1950-1980 ","2",NA," Asbóth utca 14.,7"," Asbóth utca 14., 7",47.4975842,19.0569998
"229",1," Attila út",60,2,NA,2e+05,"like new","high",NA,2,4,"Yes",NA,"Yes","Yes",50000,"immediately","1 év","street",NA,"Yes","No","No","street","1950-1980 ",NA,NA," Attila út,1"," Attila út, 1",48.3194106,21.5703148084821
"230",7," Szövetség utca 27.",48,2,NA,145000,NA,NA,NA,NA,NA,NA,NA,NA,NA,20000,NA,"nincs",NA,NA,NA,NA,NA,NA,NA,"7",NA," Szövetség utca 27.,7"," Szövetség utca 27., 7",47.5011548,19.0733323
"231",11," Mezokövesd út 1.",55,1,1,180000,"new",NA,NA,7,7,"Yes",NA,NA,"Partially",19417,"immediately","nincs","panorama",NA,"Yes","Yes","No","can rent","2019","10",NA," Mezokövesd út 1.,11"," Mezokövesd út 1., 11",47.4395498,19.0441551
"232",14," Báróczy utca 17A",54,2,NA,115000,"renovated","high",NA,2,4,"No","less than 3",NA,NA,NA,"immediately","1 év","street","No","Yes","No","No","street","1950-1980 ","4",NA," Báróczy utca 17A,14"," Báróczy utca 17A, 14",47.5109282,19.112305
"233",3," Ágoston utca 18.",31,1,NA,120000,"renovated","average",NA,10,NA,"Yes",NA,"No","Yes",NA,"immediately","1 év","panorama","No",NA,"No","No","street",NA,"3",NA," Ágoston utca 18.,3"," Ágoston utca 18., 3",47.547743,19.0300099538306
"234",2," Rómer Flóris utca",29,1,NA,120000,"good",NA,NA,NA,NA,NA,NA,NA,NA,40000,NA,"nincs",NA,NA,NA,NA,NA,NA,NA,NA,NA," Rómer Flóris utca,2"," Rómer Flóris utca, 2",46.8481465,16.8836080644339
"235",11," Fegyvernek utca",55,1,2,145000,"good",NA,NA,6,10,"Yes","less than 3",NA,"No",NA,"immediately","1 év","panorama",NA,"Yes",NA,NA,"street","1950-1980 ","5",NA," Fegyvernek utca,11"," Fegyvernek utca, 11",47.44789685,19.0389718267351
"236",9," Telepy utca 2.",33,1,NA,120000,"renovated","high",NA,1,6,"Yes","less than 3","Yes","Yes",30000,"immediately","1 év","street","No","Yes","No",NA,"street","2001-2010 ","3",NA," Telepy utca 2.,9"," Telepy utca 2., 9",47.4769858,19.0804657816291
"237",13," Dévai utca 22-24A",73,3,NA,220000,"renovated","high",NA,7,10,"Yes","less than 3","No","Yes",35000,"immediately","1 év","yard","No","Yes","Yes","No","street","1981-2000 ","3",NA," Dévai utca 22-24A,13"," Dévai utca 22-24A, 13",47.5193876,19.0639177
"238",13," Béke utca",45,2,NA,125000,"like new","high","AA+",1,4,"Yes",NA,"Yes","Partially",25000,"immediately","nincs",NA,NA,"Yes",NA,"No",NA,"2001-2010 ","5",NA," Béke utca,13"," Béke utca, 13",46.7825035,18.0121131
"239",1," Mészáros utca",36,1,NA,149000,"renovated",NA,NA,3,3,"No","less than 3","Yes","Yes",20000,"immediately","1 év","garden","No","Yes","No","No","street","1950-1980 ","4",NA," Mészáros utca,1"," Mészáros utca, 1",47.4967105,19.0307989617089
"240",12," Csörsz utca 53",41,1,NA,126000,"good","high",NA,1,3,NA,"3 or more",NA,"Yes",NA,"immediately","6 hónap","garden",NA,"Yes",NA,NA,NA,"1950-1980 ","3",NA," Csörsz utca 53,12"," Csörsz utca 53, 12",47.4896545,19.0295258
"241",11," Regos utca",54,1,2,150000,"renovated",NA,NA,1,10,"Yes",NA,NA,"No",25000,"immediately","1 év",NA,NA,NA,"No","No","street","1981-2000 ",NA,NA," Regos utca,11"," Regos utca, 11",47.4681242,19.0015108
"242",14," Szugló utca 156.",68,3,NA,150000,"fair","high",NA,1,3,"No","less than 3","No","Yes",NA,"immediately","2 év","yard","No","Yes","No","No","can rent",NA,"3",NA," Szugló utca 156.,14"," Szugló utca 156., 14",47.5224606,19.122094
"243",8," II. János Pál pápa tér",55,1,1,150000,"renovated","high",NA,4,NA,"Yes","3 or more","No","Yes",20000,"immediately","1 év","yard",NA,NA,NA,"No","street","1950 elott","3",NA," II. János Pál pápa tér,8"," II. János Pál pápa tér, 8",47.49511915,19.076885471059
"244",6," Jókai tér 6.",54,1,1,170000,NA,"high",NA,NA,NA,NA,"3 or more",NA,"Yes",NA,NA,"3 hónap","garden",NA,"No","No","No",NA,NA,NA,NA," Jókai tér 6.,6"," Jókai tér 6., 6",47.5052553,19.061997144972
"245",12," Béla király út",80,2,NA,310000,"renovated","high",NA,2,2,NA,NA,NA,"Partially",NA,"immediately","nincs","street",NA,NA,NA,NA,"included",NA,NA,NA," Béla király út,12"," Béla király út, 12",47.50276025,18.98479185
"246",13," Béke utca 79.",55,1,2,140000,"renovated","high",NA,3,6,"Yes",NA,NA,"Partially",NA,"immediately","1 év","street",NA,NA,"No","No","street",NA,"3",NA," Béke utca 79.,13"," Béke utca 79., 13",47.5407719,19.0865663
"247",3," Vörösvári út",32,1,NA,127000,NA,NA,NA,NA,NA,NA,NA,NA,NA,NA,NA,"nincs",NA,NA,NA,NA,NA,NA,NA,NA,NA," Vörösvári út,3"," Vörösvári út, 3",47.54275475,19.0391201765479
"248",8," Práter utca 6-8",45,2,NA,175000,"new","high",NA,4,6,"Yes","less than 3","Yes","Yes",NA,"immediately","1 év","garden","Yes","Yes","No","No","included","2016","9",NA," Práter utca 6-8,8"," Práter utca 6-8, 8",47.48699745,19.0712311049673
"249",8," Alföldi utca",60,2,NA,115000,"good",NA,NA,3,3,"No","less than 3","No","Partially",33000,"immediately","1 év","panorama","No",NA,NA,"No","street",NA,NA,NA," Alföldi utca,8"," Alföldi utca, 8",46.2459731,20.1403142757748
"250",14," Mogyoródi út",42,2,NA,160000,"renovated","high","BB",NA,3,"No","less than 3","Yes","No",NA,"immediately","1 év","yard","Yes","Yes","No","No","street","1950-1980 ","7",NA," Mogyoródi út,14"," Mogyoródi út, 14",47.5103193,19.1203597
"251",13," Csanády utca",70,2,1,280000,"renovated","luxury",NA,2,5,"Yes","3 or more","Yes","Yes",NA,"not immediately","nincs","street","No","Yes",NA,"No","street",NA,NA,NA," Csanády utca,13"," Csanády utca, 13",47.5165753,19.0569222
"252",13," Mura utca 4.",42,2,NA,175000,"new","high","AA+",5,9,"Yes","less than 3","Yes","Yes",25000,"immediately","1 év","garden","No","Yes","No",NA,"can rent","2021","10",25000," Mura utca 4.,13"," Mura utca 4., 13",47.5472695,19.070285
"253",5," Honvéd utca",82,3,NA,280000,"good","very high",NA,1,6,"Yes","3 or more","No","No",60000,"not immediately","1 év","street","No","Yes","No","No","street","1950-1980 ",NA,NA," Honvéd utca,5"," Honvéd utca, 5",47.5583854,18.9674120081312
"254",13," Fiastyúk utca 26.",40,1,1,120000,"good",NA,NA,0.5,3,"No","less than 3",NA,"Yes",NA,"immediately","1 év",NA,NA,"Yes","No","No","street","1950-1980 ",NA,NA," Fiastyúk utca 26.,13"," Fiastyúk utca 26., 13",47.5449237,19.0782352
"255",2," Trombitás út",112,4,1,550000,"renovated","high","AA",1,2,"No",NA,"No","By arrangement",30000,"immediately","1 év","garden","Yes","Yes","No","No","included","1950 elott","15",NA," Trombitás út,2"," Trombitás út, 2",47.51136035,19.0107580059568
"256",16," Pálya utca 128.",35,1,1,120000,NA,NA,NA,NA,NA,NA,NA,NA,NA,20000,NA,"nincs",NA,NA,NA,NA,NA,NA,NA,NA,NA," Pálya utca 128.,16"," Pálya utca 128., 16",47.5218783,19.1525232
"257",11," Irinyi József utca",40,1,1,125000,"good","high",NA,1,NA,"Yes","less than 3","Yes","Partially",NA,"immediately","6 hónap","street","No","Yes","No","No","street",NA,NA,NA," Irinyi József utca,11"," Irinyi József utca, 11",47.39284815,21.7119096
"258",11," Etele út",48,2,NA,140000,"good","high",NA,4,10,"Yes","less than 3","No","Partially",26000,"immediately","6 hónap","panorama","No","Yes","No","No","street","1950-1980 ","5",NA," Etele út,11"," Etele út, 11",47.4625021,19.0413102
"259",12," Orbánhegyi út",101,2,2,389000,"renovated","high",NA,1,2,NA,"less than 3","Yes",NA,18000,"immediately","6 hónap","panorama","No","Yes","No","No","street",NA,"11",NA," Orbánhegyi út,12"," Orbánhegyi út, 12",47.4966744,19.0149792479096
"260",6," Izabella utca",55,3,NA,170000,"renovated","high",NA,NA,3,"No","3 or more","No","Yes",35000,"immediately","1 év","yard","No","Yes","No","No","street",NA,NA,NA," Izabella utca,6"," Izabella utca, 6",47.50204565,19.0743471547588
"261",13," Gömb utca",54,2,NA,160000,"like new","high",NA,3,6,"Yes","less than 3","No","Partially",NA,"immediately","1 év","street","No","Yes","No","No","street","2001-2010 ",NA,NA," Gömb utca,13"," Gömb utca, 13",47.5302971,19.0754789
"262",7," Jobbágy utca",35,1,NA,135000,NA,NA,NA,NA,NA,NA,NA,NA,NA,8700,NA,"nincs",NA,NA,NA,NA,NA,NA,NA,NA,NA," Jobbágy utca,7"," Jobbágy utca, 7",47.50251185,19.08859425
"263",9," Ferenc körút 28.",60,2,NA,130000,"like new","high",NA,1,3,"No","3 or more","Yes","Yes",40000,"immediately","3 hónap","yard","No","Yes","No","No","street",NA,NA,NA," Ferenc körút 28.,9"," Ferenc körút 28., 9",47.48377275,19.06882500765
"264",11," Hadak útja 2.",50,2,NA,138000,"good","high",NA,8,NA,"Yes","less than 3","Yes","Partially",35000,"not immediately","1 év","panorama",NA,"Yes","No","No",NA,NA,"6",NA," Hadak útja 2.,11"," Hadak útja 2., 11",47.4629805,19.0266074
"265",3," Bálint György utca",56,1,2,140000,"good",NA,NA,4,NA,"Yes",NA,NA,"Partially",35000,"immediately","6 hónap",NA,NA,NA,"Yes",NA,"street",NA,NA,NA," Bálint György utca,3"," Bálint György utca, 3",47.601286,19.0604134
"266",6," Andrássy út 1.",25,1,NA,3e+05,NA,NA,NA,NA,NA,NA,NA,NA,NA,1,NA,"nincs",NA,NA,NA,NA,NA,NA,NA,"3",NA," Andrássy út 1.,6"," Andrássy út 1., 6",47.4994235,19.0550751
"267",7," Király utca",96,3,NA,475000,NA,NA,NA,NA,NA,NA,NA,NA,NA,NA,NA,"nincs",NA,NA,NA,NA,NA,NA,NA,NA,NA," Király utca,7"," Király utca, 7",47.4986307,19.0573733
"268",5," Belgrád rakpart",140,2,1,950000,"renovated","luxury",NA,NA,6,"Yes",NA,"Yes","Partially",NA,"immediately","1 év","panorama",NA,"Yes","Yes",NA,"can rent",NA,NA,NA," Belgrád rakpart,5"," Belgrád rakpart, 5",47.4879843,19.055707805462
"269",5," Szalay utca 2.",28,1,NA,120000,"renovated",NA,NA,4,6,"Yes","3 or more","Yes","Partially",18000,"immediately","1 év","yard",NA,"Yes","No","No","street","1950 elott",NA,NA," Szalay utca 2.,5"," Szalay utca 2., 5",47.50881295,19.0481609191967
"270",11," Szurdok utca",55,3,NA,240000,"new","high","AA++",4,5,"Yes","less than 3","Yes","Yes",15000,"immediately","1 év","panorama","No","Yes","No","No","can rent","2017",NA,15000," Szurdok utca,11"," Szurdok utca, 11",47.8170947,18.8752707
"271",21," Urhajós utca",49,2,NA,120000,"renovated",NA,NA,3,3,"No","less than 3","Yes","Yes",30000,"immediately","1 év",NA,NA,"Yes",NA,"No","street",NA,"2",NA," Urhajós utca,21"," Urhajós utca, 21",47.7968998,18.7047733750672
"272",5," Balassi Bálint utca",45,2,NA,220000,"renovated","high",NA,3,5,"Yes","3 or more","Yes","Yes",25000,"immediately","6 hónap","yard",NA,"Yes",NA,NA,NA,NA,NA,NA," Balassi Bálint utca,5"," Balassi Bálint utca, 5",47.22626185,16.6218588779942
"273",2," Detreko utca",70,3,NA,240000,"renovated",NA,NA,1,2,"No","less than 3","Yes","By arrangement",NA,"immediately","1 év","panorama","No","Yes",NA,"No","included","1981-2000 ","27",NA," Detreko utca,2"," Detreko utca, 2",47.4044645,18.8669191566813
"274",22," Nagytétényi út",58,2,1,120000,"renovated","high",NA,NA,NA,NA,NA,NA,"No",NA,"immediately","1 év","garden",NA,NA,"No",NA,"street",NA,NA,NA," Nagytétényi út,22"," Nagytétényi út, 22",47.3872834,18.9701908
"275",8," Bérkocsis utca",32,1,NA,110000,"new","high",NA,1,6,"Yes",NA,NA,"Yes",NA,"immediately","1 év","street",NA,"Yes","No","No",NA,"2011",NA,NA," Bérkocsis utca,8"," Bérkocsis utca, 8",47.4941133,19.0744534
"276",10," Mongol utca 9.",55,2,1,135000,NA,NA,NA,NA,NA,NA,NA,NA,NA,NA,NA,"nincs",NA,NA,NA,NA,NA,NA,NA,"5",NA," Mongol utca 9.,10"," Mongol utca 9., 10",47.4788616,19.1315753353881
"277",14," Limanova tér",50,2,1,140000,"like new","high",NA,5,5,"Yes",NA,"Yes",NA,NA,"immediately","nincs","panorama",NA,"Yes","Yes","No",NA,"2011",NA,NA," Limanova tér,14"," Limanova tér, 14",47.5213535,19.1033244
"278",13," Béke utca 126.",38,1,1,129000,"renovated",NA,NA,0.5,3,"No","less than 3","Yes","Yes",NA,"immediately","1 év","garden",NA,"Yes",NA,"No","street","1950-1980 ",NA,NA," Béke utca 126.,13"," Béke utca 126., 13",47.5455396,19.0881995
"279",11," Bártfai utca",52,2,NA,135000,"good","high",NA,1,5,NA,"less than 3","Yes",NA,NA,"immediately","1 év",NA,NA,NA,"Yes","No","street","1981-2000 ",NA,NA," Bártfai utca,11"," Bártfai utca, 11",47.467779,19.0409619295648
"280",9," Liliom utca",51,2,NA,145000,"good",NA,NA,NA,5,NA,NA,NA,"Yes",35000,"immediately","6 hónap",NA,"Yes",NA,NA,"No","street",NA,NA,NA," Liliom utca,9"," Liliom utca, 9",47.42285045,19.0314380709717
"281",8," Nap utca",70,3,NA,160000,"like new","high",NA,4,5,"Yes","less than 3","Yes","Partially",50000,"immediately","1 év","street","No","No","No","No","street","2001-2010 ","2",NA," Nap utca,8"," Nap utca, 8",47.4200296,19.0189922551213
"282",2," Csokonai utca",92,2,1,250000,NA,NA,NA,NA,NA,NA,NA,NA,NA,45,NA,"nincs",NA,NA,NA,NA,NA,NA,NA,"5",NA," Csokonai utca,2"," Csokonai utca, 2",47.497278,19.0719079
"283",14," Róna utca",47,2,NA,145000,"like new","high","AA+",5,7,"Yes","less than 3","No","Yes",20000,"immediately","1 év","panorama","No","Yes","No","No","street","2001-2010 ","1",NA," Róna utca,14"," Róna utca, 14",47.5206133,19.1026205
"284",11," Medvetalp utca 5.",60,3,NA,270000,"new",NA,NA,1,NA,"Yes",NA,"Yes","Partially",NA,"immediately","1 év","panorama",NA,NA,NA,NA,"can rent","2020","8",30000," Medvetalp utca 5.,11"," Medvetalp utca 5., 11",47.4680504,18.9921511482355
"285",9," Vágóhíd utca",40,1,1,140000,"new","high",NA,2,6,"Yes","less than 3",NA,"Partially",NA,NA,"1 év",NA,"No","Yes","No","No",NA,"2016","4",NA," Vágóhíd utca,9"," Vágóhíd utca, 9",47.6180258,18.9178822
"286",11," Fehérvári út 86.",61,2,1,150000,"good","high",NA,5,5,"Yes","less than 3","No","Partially",40000,"immediately","1 év","street",NA,"Yes","Yes","No","street","1950-1980 ","2",NA," Fehérvári út 86.,11"," Fehérvári út 86., 11",47.46318945,19.0427768506939
"287",14," Öv utca",55,3,NA,149000,"good","high","AA",4,6,"Yes","less than 3","Yes","Partially",25000,"not immediately","1 év","garden","No","Yes","No","No","street","2001-2010 ","8",NA," Öv utca,14"," Öv utca, 14",47.5308632,19.1217042
"288",2," Bölöni György utca",50,2,NA,140000,"good","high",NA,2,2,"No",NA,"No","By arrangement",15000,"immediately","1 év","panorama",NA,"Yes",NA,"No","can rent",NA,"6",20000," Bölöni György utca,2"," Bölöni György utca, 2",47.5251618,18.9815235
"289",5," Fehér Hajó utca",57,1,1,195000,"renovated","high",NA,4,5,"Yes","3 or more","No","Partially",NA,"immediately","6 hónap","yard","No","Yes","No","No","street","1950-1980 ",NA,NA," Fehér Hajó utca,5"," Fehér Hajó utca, 5",47.4961005,19.0537706
"290",11," Sáfrány utca 40.",53,1,2,145000,"good",NA,NA,7,10,"Yes","less than 3","Yes","Partially",NA,"immediately","1 év","panorama","No","Yes","No","No","street","1950-1980 ","5",NA," Sáfrány utca 40.,11"," Sáfrány utca 40., 11",47.4464558,19.0340074
"291",14," Róna utca 205.",40,1,1,125000,NA,NA,NA,NA,NA,NA,NA,NA,NA,25000,NA,"nincs",NA,NA,NA,NA,NA,NA,NA,"8",NA," Róna utca 205.,14"," Róna utca 205., 14",47.5215373,19.1006541
"292",14," Nagy Lajos király útja 83.",56,1,2,130000,"renovated","high","AA",0.5,NA,"Yes","less than 3","No","Partially",25000,"immediately","1 év","street","No","Yes","No","No","street","1981-2000 ",NA,NA," Nagy Lajos király útja 83.,14"," Nagy Lajos király útja 83., 14",47.5224342,19.1025507
"293",7," Dob utca",45,2,NA,120000,NA,NA,NA,NA,NA,NA,NA,NA,NA,NA,NA,"nincs",NA,NA,NA,NA,NA,NA,NA,"4",NA," Dob utca,7"," Dob utca, 7",47.4970951,19.0601143
"294",4," Izzó utca 15.",47,2,NA,166000,"new","high","CC",NA,5,"Yes","3 or more","No","Partially",15000,"immediately","1 év","yard","Yes","Yes","No","No","can rent","2021","41",13000," Izzó utca 15.,4"," Izzó utca 15., 4",47.5794099,19.0971539
"295",14," Csernyus utca 68.",56,2,NA,130000,NA,NA,NA,NA,NA,NA,NA,NA,NA,20000,NA,"nincs",NA,NA,NA,NA,NA,NA,NA,"6",NA," Csernyus utca 68.,14"," Csernyus utca 68., 14",47.5110989,19.1362114
"296",1," Hunyadi János út 11.",70,2,NA,140000,"renovated","very high",NA,0.5,NA,NA,"3 or more",NA,"Yes",30000,"immediately","nincs","street",NA,NA,NA,NA,NA,NA,NA,NA," Hunyadi János út 11.,1"," Hunyadi János út 11., 1",47.50025525,19.0378723646307
"297",7," Rózsa utca 29.",25,1,NA,116000,"like new","average",NA,2,4,"Yes",NA,"Yes","Yes",25000,"immediately","4 hónap","yard","No","Yes","Yes","No","street",NA,NA,NA," Rózsa utca 29.,7"," Rózsa utca 29., 7",47.50462705,19.0731812489934
"298",2," Szépvölgyi út 4.",37,1,NA,130000,"good","high",NA,6,7,"Yes","less than 3","No","Yes",25000,"immediately","1 év","panorama","No","Yes",NA,"No","street","1950-1980 ",NA,NA," Szépvölgyi út 4.,2"," Szépvölgyi út 4., 2",47.5272698,19.0387255
"299",14," Bácskai utca 19.",44,2,NA,115000,"renovated","average",NA,3,3,"No","less than 3","No","Yes",30000,"immediately","4 hónap","panorama","No","Yes","No","No","street","1950-1980 ","2",NA," Bácskai utca 19.,14"," Bácskai utca 19., 14",47.5157976,19.1030597
"300",10," Liget tér 2.",63,2,NA,150000,"renovated",NA,NA,2,3,"No","3 or more",NA,"Partially",NA,"immediately","1 év",NA,NA,NA,NA,NA,NA,NA,NA,NA," Liget tér 2.,10"," Liget tér 2., 10",47.4830512,19.1290283
"301",11," Schweidel utca",40,1,1,120000,"like new",NA,NA,2,3,"No",NA,NA,"No",NA,"immediately","nincs",NA,NA,NA,"No","No","street",NA,"2",NA," Schweidel utca,11"," Schweidel utca, 11",47.48671965,19.0260147501931
"302",13," Tomori köz 2.",58,2,1,140000,"renovated","high",NA,8,9,"Yes","less than 3","Yes","Partially",24000,"immediately","1 év","panorama",NA,NA,NA,NA,"street","1950-1980 ","3",NA," Tomori köz 2.,13"," Tomori köz 2., 13",47.5429029,19.0750088
"303",8," Reguly Antal utca",83,2,NA,160000,"renovated","high",NA,1,2,"No","3 or more","No","Partially",NA,"immediately","1 év","street","No","No","Yes","No","street","1950 elott",NA,NA," Reguly Antal utca,8"," Reguly Antal utca, 8",47.482845,19.0942957481719
"304",11," Ugron Gábor utca",50,2,NA,120000,"good","high",NA,2,2,"No",NA,"No","Partially",15000,"immediately","1 év","garden","No","Yes","No","No","street","1950-1980 ","6",NA," Ugron Gábor utca,11"," Ugron Gábor utca, 11",47.474318,19.0141910123734
"305",3," Tímár utca 19.",37,1,1,130000,"good","high",NA,1,3,"No","less than 3","Yes","Yes",NA,"immediately","1 év","yard","No","Yes",NA,"No","street",NA,NA,NA," Tímár utca 19.,3"," Tímár utca 19., 3",47.534591,19.0375049
"306",4," Munkásotthon utca",56,1,1,150000,NA,NA,NA,NA,NA,NA,NA,NA,NA,35000,NA,"nincs",NA,NA,NA,NA,NA,NA,NA,"4",NA," Munkásotthon utca,4"," Munkásotthon utca, 4",47.5598199142857,19.0865017285714
"307",13," Taksony utca",32,1,NA,140000,"new",NA,NA,2,9,NA,NA,NA,"Yes",NA,"immediately","1 év",NA,NA,NA,"No","No",NA,"2021","6",NA," Taksony utca,13"," Taksony utca, 13",47.45750215,19.1253557738682
"308",1," Szabó Ilonka utca",35,1,NA,120000,NA,NA,NA,NA,NA,NA,NA,NA,NA,10000,NA,"nincs",NA,NA,NA,NA,NA,NA,NA,NA,NA," Szabó Ilonka utca,1"," Szabó Ilonka utca, 1",47.5060723,19.0291854
"309",12," Tamási Áron utca",45,1,NA,150000,"like new","very high","AA++",1,2,"No","less than 3","Yes","Partially",NA,"immediately","1 év","garden","No","Yes","No","No","street","1950 elott","2",NA," Tamási Áron utca,12"," Tamási Áron utca, 12",47.20206515,16.6451847855099
"310",14," Cserto utca",46,1,1,120000,"fair","high",NA,4,10,"Yes","less than 3","No","Yes",NA,"immediately","nincs","street",NA,"Yes","No","No","street",NA,NA,NA," Cserto utca,14"," Cserto utca, 14",47.51433245,19.1448184962208
"311",11," Fegyvernek utca",91,4,NA,180000,"like new","high",NA,3,3,"No","3 or more","Yes","Partially",35000,"not immediately","1 év","panorama","No","Yes","No","No","street","2001-2010 ",NA,NA," Fegyvernek utca,11"," Fegyvernek utca, 11",47.44789685,19.0389718267351
"312",14," Jerney utca 70.",52,1,1,120000,"good","high",NA,6,10,"Yes","less than 3","No","Yes",35000,"immediately","6 hónap","panorama",NA,"Yes","Yes","No","street","1981-2000 ","6",NA," Jerney utca 70.,14"," Jerney utca 70., 14",47.515577,19.1228766981973
"313",14," Thököly út",70,3,NA,2e+05,"renovated","high",NA,3,3,"No",NA,"Yes","Yes",40000,"immediately","1 év","panorama","No","Yes","Yes","No","included",NA,NA,NA," Thököly út,14"," Thököly út, 14",47.5018926,19.0841457
"314",6," Király utca 24.",40,1,NA,140000,"renovated","high",NA,2,4,"Yes","3 or more",NA,"Yes",17000,"immediately","1 év","yard",NA,"Yes","Yes",NA,"street",NA,NA,NA," Király utca 24.,6"," Király utca 24., 6",47.49950685,19.0584475741514
"315",6," Szófia utca",70,1,2,165000,"renovated","high",NA,1,3,"No","3 or more","Yes","Yes",40,NA,"1 év","garden","No","Yes","No","No",NA,NA,NA,NA," Szófia utca,6"," Szófia utca, 6",47.5043711,19.0653187
"316",3," Huszti út 21.",50,2,NA,140000,"renovated",NA,NA,2,10,"Yes",NA,NA,"Yes",NA,"immediately","nincs","panorama",NA,"Yes",NA,NA,"street",NA,NA,NA," Huszti út 21.,3"," Huszti út 21., 3",47.5528295,19.0411869
"317",3," Kiscelli utca 8.",66,3,NA,165000,"good",NA,NA,10,10,"Yes",NA,"Yes","Partially",NA,"not immediately","1 év","panorama","No",NA,NA,"No","street",NA,"4",NA," Kiscelli utca 8.,3"," Kiscelli utca 8., 3",47.5382058,19.028845
"318",7," Péterfy Sándor utca 5.",60,2,1,185000,"renovated","high",NA,1,2,NA,"3 or more",NA,"Yes",NA,"immediately","1 év","street",NA,"Yes",NA,"No",NA,NA,NA,NA," Péterfy Sándor utca 5.,7"," Péterfy Sándor utca 5., 7",47.5002578,19.0761379
"319",13," Dagály utca",60,2,NA,110000,"renovated","high",NA,NA,NA,NA,"less than 3","No","By arrangement",30000,"immediately","1 év","yard","No","Yes","No","No","street","1950-1980 ",NA,NA," Dagály utca,13"," Dagály utca, 13",47.5375896,19.0639879
"320",2," Szász Károly utca",42,1,1,120000,"renovated","high",NA,4,4,"Yes","3 or more",NA,"Yes",8200,"immediately","1 év","yard","No","Yes","No","No",NA,NA,NA,NA," Szász Károly utca,2"," Szász Károly utca, 2",47.5094274,19.0325094
"321",7," Síp utca 9.",60,2,NA,2e+05,"good","high",NA,1,6,"Yes",NA,"No","Yes",NA,"not immediately","1 év","street","No","Yes","No",NA,"included",NA,NA,NA," Síp utca 9.,7"," Síp utca 9., 7",47.4256274,19.0289074106783
"322",3," Sóvári utca",47,1,1,115000,NA,NA,NA,NA,NA,NA,NA,NA,NA,25000,NA,"nincs",NA,NA,NA,NA,NA,NA,NA,"4",NA," Sóvári utca,3"," Sóvári utca, 3",47.5716977,19.0554566
"323",5," Régi posta utca 2.",70,2,1,165000,"good","high",NA,5,7,"Yes","less than 3","Yes","No",33500,"immediately","1 év","panorama","No","Yes",NA,"Yes","street","1950-1980 ","6",NA," Régi posta utca 2.,5"," Régi posta utca 2., 5",47.4941013,19.0507581
"324",2," Medve utca",45,2,NA,190000,"renovated","high",NA,3,6,"Yes","less than 3","Yes","Yes",36000,"immediately","1 év",NA,"No","Yes",NA,NA,"included","1981-2000 ","4",NA," Medve utca,2"," Medve utca, 2",47.8420026,19.0077636
"325",7," Marek József utca 38.",42,2,NA,125000,"renovated","high","EE",1,4,"No","3 or more","No","No",NA,"immediately","1 év","yard","No","Yes","Yes","No","street","1950-1980 ",NA,NA," Marek József utca 38.,7"," Marek József utca 38., 7",47.507019,19.0839646
"326",14," Szentmihályi út 20-22.",46,1,1,135000,"renovated","high",NA,10,10,"Yes",NA,"Yes","Yes",NA,"immediately","1 év","street","No","Yes","No","No","street",NA,NA,NA," Szentmihályi út 20-22.,14"," Szentmihályi út 20-22., 14",47.508894,19.1483450551386
"327",4," Wolfner utca 6.",55,3,NA,170000,"new",NA,"AA++",1,NA,"Yes",NA,"Yes","Yes",35000,"immediately","1 év",NA,NA,"Yes","No","No","can rent","2020",NA,20000," Wolfner utca 6.,4"," Wolfner utca 6., 4",47.564595,19.0805572
"328",6," Bajcsy-Zsilinszky út",43,2,NA,120000,"good",NA,NA,1,4,"No","3 or more",NA,"Yes",NA,"immediately","1 év","yard",NA,"Yes","No","No",NA,"1950 elott",NA,NA," Bajcsy-Zsilinszky út,6"," Bajcsy-Zsilinszky út, 6",47.68356825,17.6287780194478
"329",2," Frankel Leó út 12.",42,1,NA,1e+05,"good","high",NA,2,3,"No","3 or more","No","Yes",25000,"immediately","1 év","yard","No","Yes","No","No","street","1950 elott",NA,NA," Frankel Leó út 12.,2"," Frankel Leó út 12., 2",47.5134376,19.0375779
"330",11," Karolina út",80,3,NA,259000,"renovated","high",NA,2,2,"No","less than 3","Yes","No",25000,"immediately","3 hónap","garden","No","Yes","Yes","Yes","street","1950-1980 ","2",NA," Karolina út,11"," Karolina út, 11",47.4812727705367,19.0302195734851
"331",13," Pap Károly utca 20.",42,2,NA,160000,"like new","high",NA,3,6,"Yes","less than 3","Yes","Yes",18000,"not immediately","1 év","street","No","Yes","No","No","can rent","2001-2010 ","5",1.2e+07," Pap Károly utca 20.,13"," Pap Károly utca 20., 13",47.532958,19.0727171
"332",13," Fáy utca",75,3,NA,230000,"new",NA,NA,2,4,"Yes",NA,"Yes","Yes",NA,"not immediately","1 év",NA,NA,"Yes",NA,"No","included","2017","10",NA," Fáy utca,13"," Fáy utca, 13",47.5371571,19.0731456
"333",1," Aladár utca",50,2,NA,170000,"renovated","high",NA,1,6,"Yes","less than 3","No","No",19900,"immediately","1 év","street","No","Yes","Yes","No","can rent","2001-2010 ","5",25000," Aladár utca,1"," Aladár utca, 1",47.38263215,18.924641071501
"334",13," Népfürdo utca",75,3,NA,230000,"renovated",NA,"AA+",5,7,"Yes",NA,"Yes","Partially",102000,"not immediately","1 év","panorama",NA,"Yes",NA,"No","included","2001-2010 ","18",NA," Népfürdo utca,13"," Népfürdo utca, 13",47.5267305,19.0558489
"335",14," Furész utca 90.",35,1,NA,135000,"renovated","high",NA,NA,2,"No","less than 3","No","Partially",20000,"immediately","1 év","garden","Yes","Yes","No","No","street","1950-1980 ",NA,NA," Furész utca 90.,14"," Furész utca 90., 14",47.5210162,19.1182343
"336",7," Murányi utca",93,3,1,399000,"new","very high",NA,6,6,"Yes",NA,"Yes","Yes",50000,"immediately","10 hónap","panorama",NA,"Yes","Yes",NA,"can rent","2020","41",30000," Murányi utca,7"," Murányi utca, 7",47.5025139,19.0864112
"337",10," Korösi Csoma Sándor út",57,2,NA,130000,"renovated",NA,NA,4,4,"Yes",NA,"No","No",NA,"immediately","1 év","street","No",NA,"No","No","street",NA,"3",NA," Korösi Csoma Sándor út,10"," Korösi Csoma Sándor út, 10",47.491252,19.1381904
"338",14," Kerepesi út",35,1,1,125000,"renovated",NA,NA,3,5,"Yes",NA,"No","Yes",30000,"immediately","1 év","garden","No","Yes","No",NA,"street","1950-1980 ",NA,NA," Kerepesi út,14"," Kerepesi út, 14",47.500207,19.108249
"339",16," Zsemlékes út 25.",46,1,1,130000,"renovated",NA,NA,1,2,"No",NA,"Yes","Partially",NA,"immediately","nincs","yard","No","Yes",NA,"No",NA,NA,NA,NA," Zsemlékes út 25.,16"," Zsemlékes út 25., 16",47.5052303,19.2181506
"340",9," Vágóhíd utca",35,1,NA,135000,"new","high",NA,10,10,"Yes","less than 3","Yes","Yes",15000,"immediately","1 év",NA,"No","Yes","No","No",NA,"2019","7",NA," Vágóhíd utca,9"," Vágóhíd utca, 9",47.6180258,18.9178822
"341",11," Botfalu köz 12.",40,1,NA,155000,"renovated","high",NA,NA,2,"No",NA,NA,"No",NA,"immediately","1 év","garden","Yes","Yes","No",NA,"included",NA,NA,NA," Botfalu köz 12.,11"," Botfalu köz 12., 11",47.4772373,19.0007631
"342",6," Benczúr utca 35",36,1,NA,130000,"good",NA,NA,3,6,"Yes","3 or more","No","By arrangement",25000,"immediately","1 év","street","No","Yes","No","No","street","1950 elott","8",NA," Benczúr utca 35,6"," Benczúr utca 35, 6",47.51115955,19.0762456962201
"343",13," Csata utca 11.",43,1,1,120000,NA,NA,NA,NA,NA,NA,NA,NA,NA,15000,NA,"nincs",NA,NA,NA,NA,NA,NA,NA,"4",NA," Csata utca 11.,13"," Csata utca 11., 13",47.52646,19.075055
"344",5," Belgrád rakpart 23.",64,2,NA,210000,"renovated","high",NA,1,3,"No","3 or more","No","Partially",NA,"immediately","nincs","yard","No","Yes","Yes","No","street","1950 elott",NA,NA," Belgrád rakpart 23.,5"," Belgrád rakpart 23., 5",47.49006185,19.0528754193216
"345",13," Pannónia utca",40,1,1,145000,"renovated","high",NA,2,8,"Yes","less than 3","No","Yes",NA,"immediately","1 év","street","No","Yes","Yes","No","street","1950-1980 ",NA,NA," Pannónia utca,13"," Pannónia utca, 13",47.5142921,19.0524587
"346",3," Bóbita utca 6.",41,1,1,130000,NA,NA,NA,1,NA,"No",NA,"Yes","Partially",NA,"immediately","nincs",NA,NA,"Yes","Yes","No","street",NA,"4",NA," Bóbita utca 6.,3"," Bóbita utca 6., 3",47.572388,19.0149848
"347",1," Krisztina körút 77.",50,2,NA,195000,"renovated","high",NA,5,6,"Yes","less than 3","No","Yes",25000,"immediately","6 hónap","panorama","No","Yes","No","No","street","1950 elott","4",NA," Krisztina körút 77.,1"," Krisztina körút 77., 1",47.496054,19.033539
"348",2," Vitéz utca",37,1,NA,160000,"renovated",NA,NA,1,4,"No","less than 3","No","Partially",NA,"immediately","1 év","street","No","Yes",NA,"No","street","1950 elott","2",NA," Vitéz utca,2"," Vitéz utca, 2",46.2461266,20.1453788
"349",11," Bartók Béla út",37,1,NA,115000,"good",NA,NA,2,5,"Yes","3 or more",NA,"Partially",NA,"immediately","1 év","garden","No","Yes",NA,NA,"street","1950 elott",NA,NA," Bartók Béla út,11"," Bartók Béla út, 11",47.4818518,19.0522305
"350",2," Kitaibel Pál utca 9.",96,2,2,2e+05,"renovated","very high",NA,1,4,"No","less than 3",NA,"Partially",NA,"immediately","nincs","garden",NA,NA,"Yes","No","can rent",NA,"8",35000," Kitaibel Pál utca 9.,2"," Kitaibel Pál utca 9., 2",47.5126757,19.0290941147969
"351",10," Óhegy utca",62,3,NA,175000,"new","very high",NA,1,2,"No",NA,"Yes","Partially",NA,"immediately","1 év","yard","Yes","Yes","No","No","included","2001-2010 ","8",NA," Óhegy utca,10"," Óhegy utca, 10",47.4806123,19.1388431
"352",7," Városligeti fasor 31.",100,3,NA,269000,"renovated","very high","AA",1,2,NA,"3 or more",NA,"No",24600,"immediately","1 év","garden","No","Yes",NA,NA,"can rent","1950 elott","8",NA," Városligeti fasor 31.,7"," Városligeti fasor 31., 7",47.50924655,19.0777640538634
"353",11," Budafoki út",80,2,1,195000,"renovated",NA,NA,NA,NA,"Yes",NA,NA,NA,NA,"immediately","nincs",NA,NA,"Yes",NA,NA,"street",NA,"3",NA," Budafoki út,11"," Budafoki út, 11",47.48232,19.0537259
"354",8," Gyulai Pál utca",32,1,1,135000,"renovated","high",NA,2,4,"Yes","3 or more","Yes","Yes",NA,"immediately","1 év","yard",NA,"Yes",NA,"No","street",NA,NA,NA," Gyulai Pál utca,8"," Gyulai Pál utca, 8",47.49450635,19.0675614876765
"355",7," Wesselényi utca",37,1,NA,180000,"renovated",NA,NA,6,6,"Yes",NA,NA,"Yes",30000,"immediately","3 hónap","street","No","Yes",NA,"No",NA,"2018","3",NA," Wesselényi utca,7"," Wesselényi utca, 7",47.5473479,19.1185745
"356",5," Múzeum körút 1",38,1,NA,150000,NA,NA,NA,NA,NA,NA,NA,NA,NA,45000,NA,"nincs",NA,NA,NA,NA,NA,NA,NA,NA,NA," Múzeum körút 1,5"," Múzeum körút 1, 5",47.4940808,19.0594333
"357",3," Jós utca",57,1,2,135000,"renovated","high",NA,5,10,"Yes","less than 3","No","Yes",40000,"immediately","1 év","garden","No","Yes","No","No","street","1981-2000 ","1",NA," Jós utca,3"," Jós utca, 3",47.6023226,19.0626576
"358",13," Balzac utca",63,2,NA,125000,"renovated","high",NA,1,5,"Yes","less than 3","No","Yes",NA,"immediately","nincs","street",NA,"Yes","No","No","street","1950 elott","2",NA," Balzac utca,13"," Balzac utca, 13",47.5159155,19.0547439
"359",7," Dohány utca 66.",30,1,NA,120000,"renovated","high",NA,3,3,"No","3 or more","Yes","Yes",25000,"immediately","6 hónap","yard","No","Yes","No","No","street","1950 elott",NA,NA," Dohány utca 66.,7"," Dohány utca 66., 7",47.49837895,19.0691185404394
"360",15," Bethlen Gábor utca",36,1,NA,120000,"renovated",NA,NA,NA,NA,"No","3 or more","Yes","Yes",NA,"immediately","6 hónap","yard","Yes","Yes","No","No","included",NA,NA,NA," Bethlen Gábor utca,15"," Bethlen Gábor utca, 15",47.5022759,19.0806862
"361",1," Tündérlaki mélyút",90,3,NA,245000,NA,"high",NA,NA,NA,NA,NA,"Yes","No",NA,NA,"1 év",NA,NA,NA,"No","No",NA,NA,"12",NA," Tündérlaki mélyút,1"," Tündérlaki mélyút, 1",47.4872194,19.0382244
"362",11," Cirmos utca 4.",54,2,NA,130000,"good","high",NA,7,10,"Yes","less than 3","Yes",NA,20000,"immediately","1 év","street","No","Yes","No","No","street","1981-2000 ",NA,NA," Cirmos utca 4.,11"," Cirmos utca 4., 11",47.4627101,19.0166335
"363",4," Sporttelep utca 9.",53,2,NA,140000,"renovated",NA,NA,2,4,"No",NA,NA,"No",30000,"immediately","1 év","garden",NA,"No","No","No",NA,"1981-2000 ","4",NA," Sporttelep utca 9.,4"," Sporttelep utca 9., 4",47.5752476,19.10466
"364",9," Közraktár utca 34.",52,1,1,150000,"good",NA,NA,4,4,"Yes",NA,"No","Yes",43000,"immediately","9 hónap","panorama",NA,NA,"No","No","street","1950 elott",NA,NA," Közraktár utca 34.,9"," Közraktár utca 34., 9",47.48095485,19.0661662244806
"365",2," Gábor Áron utca",45,1,NA,180000,NA,NA,NA,NA,NA,NA,NA,NA,NA,20000,NA,"nincs",NA,NA,NA,NA,NA,NA,NA,"8",NA," Gábor Áron utca,2"," Gábor Áron utca, 2",47.51522705,19.0018739083255
"366",11," Bakfu utca 14.",44,2,NA,250000,"new","luxury","AA++",1,2,"Yes","less than 3","Yes","Yes",NA,"immediately","1 év","garden","No","Yes","Yes","No","included","2019","14",NA," Bakfu utca 14.,11"," Bakfu utca 14., 11",47.4698826,18.9916347292308
"367",7," Klauzál utca 2.",65,2,NA,136000,NA,"high",NA,2,5,"Yes","3 or more","Yes","Yes",45000,NA,"1 év","street","No","Yes","No","No","street","1950-1980 ",NA,NA," Klauzál utca 2.,7"," Klauzál utca 2., 7",47.4968473,19.0679732
"368",3," Váradi utca 2.",34,1,1,115000,"renovated","high","AA",2,3,"No","less than 3","No","Yes",13000,"immediately","6 hónap","street","Yes","Yes","No","No","street","1950-1980 ",NA,NA," Váradi utca 2.,3"," Váradi utca 2., 3",47.5458841,19.0375821
"369",8," Alföldi utca 18.",37,1,1,115000,"renovated",NA,NA,0.5,NA,NA,"3 or more","Yes","Yes",35000,"immediately","4 hónap",NA,NA,"Yes","No","No","street",NA,NA,NA," Alföldi utca 18.,8"," Alföldi utca 18., 8",47.4951653,19.0827898
"370",6," Hajós utca",60,2,NA,210000,"renovated","luxury","AA",2,2,"No","3 or more","Yes","Yes",40000,"not immediately","nincs","street","No","Yes","No","No","street","1950-1980 ","3",NA," Hajós utca,6"," Hajós utca, 6",47.502615,19.059128
"371",18," Kinizsi Pál utca 11.",44,1,1,120000,NA,NA,NA,NA,NA,NA,NA,NA,NA,15000,NA,"nincs",NA,NA,NA,NA,NA,NA,NA,"4",NA," Kinizsi Pál utca 11.,18"," Kinizsi Pál utca 11., 18",47.4362806,19.1732557
"372",7," Szövetség utca 27.",29,1,NA,135000,"new","high",NA,6,6,"Yes","less than 3","Yes","Yes",NA,"immediately","nincs","yard",NA,"Yes","No","No","can rent","2018",NA,15000," Szövetség utca 27.,7"," Szövetség utca 27., 7",47.5011548,19.0733323
"373",6," Aradi utca",84,3,1,160000,"renovated","high",NA,NA,3,NA,"3 or more",NA,"Yes",39000,"immediately","1 év",NA,NA,"Yes",NA,NA,"street",NA,NA,NA," Aradi utca,6"," Aradi utca, 6",47.5064476,19.0623964
"374",1," Fortuna utca",90,2,NA,180000,"renovated","luxury","AA++",1,2,"No","3 or more","No","Yes",30000,"immediately","nincs","street","Yes","Yes","Yes","No","street","1950 elott",NA,NA," Fortuna utca,1"," Fortuna utca, 1",47.25638815,16.6223484
"375",13," Visegrádi utca 38.",45,1,1,119000,"renovated","high",NA,3,6,"Yes",NA,"No","Yes",NA,"immediately","nincs","street","Yes","Yes",NA,NA,"street",NA,NA,NA," Visegrádi utca 38.,13"," Visegrádi utca 38., 13",47.5164064,19.0567503
"376",13," Béke utca",36,1,1,120000,"like new",NA,NA,2,6,"Yes",NA,NA,"Yes",NA,"not immediately","1 év","yard",NA,"Yes",NA,NA,NA,"2001-2010 ",NA,NA," Béke utca,13"," Béke utca, 13",46.7825035,18.0121131
"377",7," Klauzál utca 26-28",75,2,1,190000,"renovated","high",NA,1,5,"Yes","3 or more","Yes","Yes",NA,"not immediately","1 év","street","No","Yes","No","No","street","1950 elott",NA,NA," Klauzál utca 26-28,7"," Klauzál utca 26-28, 7",47.4988771,19.0652309
"378",2," Mechwart tér",74,2,1,175000,"good","high",NA,1,4,"Yes","less than 3","No","Yes",20000,"immediately","4 hónap","street","No","Yes","Yes","Yes","street","1950 elott","4",NA," Mechwart tér,2"," Mechwart tér, 2",47.5119451,19.0328972
"379",9," Lónyay utca 46.",40,1,NA,149000,"renovated",NA,NA,0.5,4,"Yes",NA,"Yes","Yes",20000,"immediately","2 hónap","yard","No","Yes","No","No","street",NA,NA,NA," Lónyay utca 46.,9"," Lónyay utca 46., 9",47.4827338,19.0650511
"380",14," Fogarasi út",31,1,NA,120000,"renovated","high",NA,1,3,"No","less than 3","No","Yes",15000,"immediately","1 év","street","No","Yes","No","No","street","1950-1980 ",NA,NA," Fogarasi út,14"," Fogarasi út, 14",47.5023128,19.1161384
"381",2," Budakeszi út",32,1,1,150000,"new","high",NA,2,5,"Yes","less than 3",NA,"Partially",40000,"immediately","1 év","panorama","No","Yes",NA,NA,NA,NA,NA,NA," Budakeszi út,2"," Budakeszi út, 2",47.5194683,18.9384172
"382",10," Gergely utca 128",33,1,NA,130000,"good","high","DD",6,8,"Yes","less than 3","Yes","Yes",20000,"immediately","1 év","street","No","Yes","No","No","included","2001-2010 ","5",NA," Gergely utca 128,10"," Gergely utca 128, 10",47.466093,19.1593303
"383",12," Istenhegyi út 4",54,2,1,2e+05,"renovated","high",NA,NA,3,"No","less than 3","No","Yes",NA,"not immediately","1 év","yard","No","Yes","Yes","No","street","1950-1980 ",NA,NA," Istenhegyi út 4,12"," Istenhegyi út 4, 12",47.49770895,19.0174032500545
"384",9," Máriássy utca 6",45,2,NA,180000,"new","high","A+",1,9,"Yes","less than 3","Yes","Yes",NA,"immediately","1 év","yard","No","Yes","No","No","street","2019","6",NA," Máriássy utca 6,9"," Máriássy utca 6, 9",47.4694655,19.0780887
"385",5," Stollár Béla utca",77,2,1,175000,"renovated",NA,NA,3,5,"Yes",NA,NA,"No",35500,"immediately","1 év",NA,NA,NA,"No","No",NA,NA,"6",NA," Stollár Béla utca,5"," Stollár Béla utca, 5",47.5105508,19.0486011
"386",13," Teve utca 18.",68,3,NA,210000,"new","high","AA++",7,9,"Yes","less than 3","Yes","Partially",NA,"immediately","1 év","panorama",NA,"Yes","No",NA,"must rent","2016","14",20000," Teve utca 18.,13"," Teve utca 18., 13",47.5346165,19.0719865
"387",16," Felsomalom utca 19-21.",50,2,NA,170000,"like new","high",NA,NA,3,NA,"less than 3","No","Partially",NA,"immediately","1 év","garden","Yes","Yes","No","No","included","2001-2010 ","14",NA," Felsomalom utca 19-21.,16"," Felsomalom utca 19-21., 16",47.5264823,19.2019234
"388",14," Dorozsmai utca",67,2,1,190000,"like new",NA,NA,1,6,"Yes","less than 3","Yes","Yes",50000,"not immediately","1 év","garden","No","Yes","No","No","street","2001-2010 ","9",NA," Dorozsmai utca,14"," Dorozsmai utca, 14",47.5230936,19.0990391
"389",3," Kolostor út 6.",69,2,NA,150000,"renovated","high",NA,3,3,"No","less than 3","Yes","Yes",45000,"immediately","3 hónap","garden","No","Yes","Yes","No","street","2001-2010 ","15",NA," Kolostor út 6.,3"," Kolostor út 6., 3",47.53407085,19.0258585548706
"390",13," Madarász Viktor utca 13.",44,1,1,150000,"like new","high","CC",3,6,"Yes","less than 3","Yes","Yes",20000,"immediately","1 év","garden",NA,"Yes","No","No","street","2001-2010 ","6",NA," Madarász Viktor utca 13.,13"," Madarász Viktor utca 13., 13",47.5465285,19.0751916541604
"391",13," Hollán Erno utca",65,2,NA,320000,"renovated","very high","AA+",7,7,"Yes","less than 3","Yes","Yes",20,"immediately","1 év","panorama","No","Yes","Yes",NA,"included","2019","60",NA," Hollán Erno utca,13"," Hollán Erno utca, 13",47.2300628,16.6164332943573
"392",7," Garay utca",34,1,NA,120000,"renovated",NA,NA,NA,NA,NA,NA,NA,"Partially",NA,"immediately","1 év","yard",NA,"Yes","No","No",NA,NA,NA,NA," Garay utca,7"," Garay utca, 7",47.5006723,19.0800286660596
"393",8," Rákóczi tér",31,1,1,120000,"renovated","luxury","AA+",NA,6,"Yes",NA,NA,"Yes",20000,"immediately","1 év",NA,"Yes",NA,"No","No",NA,NA,NA,NA," Rákóczi tér,8"," Rákóczi tér, 8",47.568877,19.0984078
"394",12," Csiga út",71,2,NA,180000,"renovated","very high",NA,NA,3,"No",NA,NA,"By arrangement",NA,"immediately","nincs","garden","Yes","Yes","Yes","No","included","1981-2000 ","40",NA," Csiga út,12"," Csiga út, 12",47.5165383,18.9715468
"395",16," Hunyadvár utca",58,2,NA,120000,"good","high",NA,2,4,"No","less than 3","No",NA,10150,"immediately","1 év","garden",NA,"Yes",NA,"No","included","1981-2000 ","3",NA," Hunyadvár utca,16"," Hunyadvár utca, 16",47.5085439,19.1939886
"396",2," Rómer Flóris utca",35,1,1,150000,"renovated","high",NA,NA,4,"No","3 or more","Yes","Yes",9500,"immediately","1 év","yard",NA,"Yes","No","No","street",NA,NA,NA," Rómer Flóris utca,2"," Rómer Flóris utca, 2",46.8481465,16.8836080644339
"397",11," Baranyai utca",65,3,NA,239000,"renovated","high",NA,2,7,"Yes","less than 3","Yes","Yes",NA,"immediately","1 év","street","No","Yes","No","No","street","1950-1980 ",NA,NA," Baranyai utca,11"," Baranyai utca, 11",47.4722817,19.0481381
"398",13," Visegrádi utca 5.",45,2,NA,150000,"good","high",NA,3,4,"Yes",NA,NA,"Partially",19,"immediately","1 év","street",NA,"Yes","Yes","No","street",NA,"6",NA," Visegrádi utca 5.,13"," Visegrádi utca 5., 13",47.5121772,19.0540507
"399",2," Frankel Leó út",41,1,1,140000,NA,NA,NA,3,3,"No","3 or more","No","By arrangement",30000,"immediately","1 év",NA,"No","Yes","No","No","street","1950 elott",NA,NA," Frankel Leó út,2"," Frankel Leó út, 2",47.5125423,19.0378381
"400",15," Zsókavár utca",40,1,1,115000,"good","high",NA,9,10,"Yes",NA,"No","Yes",8500,NA,"nincs","panorama",NA,"Yes","No","No","street",NA,"3",NA," Zsókavár utca,15"," Zsókavár utca, 15",47.5408828,19.1415075463603
"401",11," Kondorosi út",35,1,1,140000,"new","high","AA+",6,7,"Yes","less than 3","Yes","Yes",16000,"immediately","1 év","yard","Yes","Yes","No","No","street","2001-2010 ","12",NA," Kondorosi út,11"," Kondorosi út, 11",47.4515251,19.0357388
"402",11," Bartók Béla út 48.",33,1,1,132000,"renovated","high","EE",2,8,"Yes","less than 3","No",NA,15000,"immediately","1 év","street","No","Yes","No","No","street","1950-1980 ",NA,NA," Bartók Béla út 48.,11"," Bartók Béla út 48., 11",47.47825285,19.0495545061471
"403",13," Váci út 86.",37,1,NA,130000,"renovated","high",NA,2,5,"Yes",NA,"Yes","Yes",10000,"immediately","1 év","street","No","Yes","No","No","street","1950-1980 ",NA,NA," Váci út 86.,13"," Váci út 86., 13",47.5265317,19.0637639
"404",11," Sáfrány utca 10.",38,1,1,140000,"good","high","CC",0.5,2,"No","less than 3","No","Yes",20000,"not immediately","1 év",NA,"Yes","Yes",NA,"No","street","1981-2000 ","24",NA," Sáfrány utca 10.,11"," Sáfrány utca 10., 11",47.4502841,19.0335319244244
"405",2," Káplár utca 5.",43,1,NA,120000,NA,NA,NA,NA,NA,NA,NA,NA,NA,15000,NA,"nincs",NA,NA,NA,NA,NA,NA,NA,NA,NA," Káplár utca 5.,2"," Káplár utca 5., 2",47.5089905,19.0220192
"406",17," Hegyalatti utca",54,2,1,149000,"like new",NA,NA,3,3,NA,NA,"Yes","Yes",15000,"immediately","1 év","panorama",NA,"Yes","No","No","included","2001-2010 ","4",NA," Hegyalatti utca,17"," Hegyalatti utca, 17",47.4677506,19.2922181
"407",13," Kresz Géza utca 21.",58,2,NA,150000,"renovated","high",NA,4,4,"Yes","3 or more","Yes","Yes",44000,"immediately","1 év","yard","No",NA,NA,"No","street",NA,NA,NA," Kresz Géza utca 21.,13"," Kresz Géza utca 21., 13",47.513618,19.0563609
"408",6," Rippl-Rónai utca 2.",26,1,NA,185000,"new","luxury",NA,4,NA,"Yes","3 or more","Yes","Yes",80000,"immediately","1 év",NA,"No","Yes","No","No","street",NA,"2",NA," Rippl-Rónai utca 2.,6"," Rippl-Rónai utca 2., 6",47.51207615,19.0765781348871
"409",11," Bártfai utca",44,2,NA,125000,NA,NA,NA,NA,NA,NA,NA,NA,NA,25,NA,"nincs",NA,NA,NA,NA,NA,NA,NA,NA,NA," Bártfai utca,11"," Bártfai utca, 11",47.467779,19.0409619295648
"410",11," Bartók Béla út 39.",65,2,NA,170000,"renovated","high",NA,5,5,"Yes","less than 3","Yes","Yes",15000,"immediately","1 év",NA,"No","Yes","No","No","street",NA,NA,NA," Bartók Béla út 39.,11"," Bartók Béla út 39., 11",47.478874,19.0495786
"411",14," Locsei út 14.",50,2,NA,140000,"like new","high",NA,2,4,"Yes","less than 3","No","Yes",30000,"immediately","1 év","street","No","Yes","Yes","Yes","street","2011","6",NA," Locsei út 14.,14"," Locsei út 14., 14",47.5174673,19.1194848322874
"412",1," Krisztina körút",33,1,NA,130000,"like new",NA,NA,1,NA,"Yes",NA,NA,"Yes",NA,"immediately","nincs",NA,NA,NA,NA,NA,NA,NA,NA,NA," Krisztina körút,1"," Krisztina körút, 1",47.506578,19.0223699512162
"413",5," Váci utca",88,3,NA,350000,"renovated","very high",NA,3,4,"Yes","3 or more","Yes","Yes",50000,"immediately","10 hónap","street","No","Yes","Yes","No","street","1950 elott","2",NA," Váci utca,5"," Váci utca, 5",47.4953826,19.0514253
"414",13," Nyugati tér 4.",54,1,1,150000,"good","high","C",2,4,"Yes","3 or more","No","Yes",NA,"immediately","1 év","yard","No","Yes",NA,"No","street",NA,NA,NA," Nyugati tér 4.,13"," Nyugati tér 4., 13",47.511129,19.0558201
"415",3," Hévízi út 6.",32,1,NA,125000,"like new","high","A",1,3,"No","less than 3","Yes","Partially",15000,NA,"1 év","panorama","Yes","No","No","No","included","1981-2000 ","2",NA," Hévízi út 6.,3"," Hévízi út 6., 3",47.54892615,19.0340302230383
"416",4," Rózsa utca",53,2,NA,130000,"renovated","high",NA,6,10,"Yes","less than 3","Yes","Yes",40000,"immediately","1 év","street","No","Yes","Yes","No","street",NA,"4",NA," Rózsa utca,4"," Rózsa utca, 4",47.6441109,19.0250501
"417",6," Dessewffy utca",31,2,1,160000,"renovated","high","AA+",1,4,"Yes","3 or more","No","Yes",20000,"immediately","1 év","yard","No","Yes",NA,NA,"street","1950-1980 ","8",NA," Dessewffy utca,6"," Dessewffy utca, 6",47.5047001,19.0559077801413
"418",8," Mária utca",44,1,NA,115000,"good","high",NA,3,5,"Yes","3 or more","No","Partially",16000,"immediately","1 év","yard","No","Yes","Yes","Yes","street","1950 elott",NA,NA," Mária utca,8"," Mária utca, 8",47.4920912,19.0692406
"419",18," Építo utca 34",54,2,NA,130000,"renovated","high",NA,1,4,"No","less than 3","No","Yes",30000,"immediately","1 év","garden","No","Yes","No","No","street","1950-1980 ","4",NA," Építo utca 34,18"," Építo utca 34, 18",47.4469392,19.1700702
"420",8," Reguly Antal utca",54,2,NA,160000,"good","high","F",NA,NA,"No","less than 3","No","By arrangement",20000,"not immediately","1 év","garden","Yes","Yes","Yes","No","street","1950 elott","15",NA," Reguly Antal utca,8"," Reguly Antal utca, 8",47.482845,19.0942957481719
"421",8," Tolnai Lajos utca",51,2,NA,140000,"like new","high",NA,2,4,"No",NA,NA,"Yes",NA,"immediately","nincs","street",NA,NA,NA,NA,"included",NA,NA,NA," Tolnai Lajos utca,8"," Tolnai Lajos utca, 8",46.3642906,18.6994598034527
"422",14," Bácskai utca",35,1,NA,130000,"like new","high",NA,NA,4,"No","less than 3","No","Yes",18000,"not immediately","1 év","yard","Yes","Yes","No","No","street","2001-2010 ","8",NA," Bácskai utca,14"," Bácskai utca, 14",47.5156614,19.1024476091155
"423",11," Sasad",100,4,NA,365000,"renovated","high",NA,0.5,3,NA,NA,NA,"By arrangement",NA,"not immediately","1 év","garden",NA,"Yes",NA,NA,"must rent",NA,"16",25000," Sasad,11"," Sasad, 11",47.4741879,18.9907495
"424",14," Bácskai utca",62,2,1,150000,"renovated","high",NA,0.5,NA,"No","less than 3",NA,"Yes",30000,"immediately","1 év","street","No","Yes","No","No","street",NA,NA,NA," Bácskai utca,14"," Bácskai utca, 14",47.5156614,19.1024476091155
